,City,Cloudiness,Country,Date,Humidity,Lat,Lng,Max Temperature,Wind Speed
0,rikitea,82,PF,1570731209,71,-23.12,-134.97,68.68,11.07
1,meulaboh,96,ID,1570731209,83,4.14,96.13,80.2,6.36
2,touros,40,BR,1570731210,62,-5.2,-35.46,84.2,18.34
3,altay,0,CN,1570731210,51,47.83,88.13,37.9,1.92
4,shihezi,27,CN,1570731210,28,44.3,86.03,63.64,4.68
5,baruun-urt,66,MN,1570731211,67,46.68,113.28,27.46,9.74
6,cape town,40,ZA,1570731211,72,-33.93,18.42,63.0,12.75
7,kinango,40,KE,1570731212,88,-4.13,39.32,78.8,4.7
8,plettenberg bay,0,ZA,1570731212,80,-34.05,23.37,57.34,5.64
9,saint-philippe,1,CA,1570731212,48,45.36,-73.48,66.0,17.22
10,albany,20,US,1570731213,39,42.65,-73.75,69.01,10.29
11,dikson,100,RU,1570731214,83,73.51,80.55,29.8,25.84
12,lorengau,36,PG,1570731214,75,-2.02,147.27,82.18,3.91
13,plouzane,90,FR,1570731215,93,48.38,-4.62,61.0,13.87
14,norman wells,20,CA,1570731215,86,65.28,-126.83,33.8,5.82
15,chokurdakh,96,RU,1570731216,89,70.62,147.9,11.08,5.02
16,esperance,90,AU,1570731216,100,-33.86,121.89,53.6,3.36
17,mataura,100,NZ,1570731217,91,-46.19,168.86,43.0,11.01
18,najran,40,SA,1570731217,29,17.54,44.22,78.8,9.17
19,ust-kulom,95,RU,1570731217,97,61.69,53.69,34.84,5.21
20,general roca,100,AR,1570731218,14,-39.03,-67.58,78.8,13.87
21,kalat,0,PK,1570731218,26,29.03,66.58,61.66,4.31
22,bahia honda,70,CU,1570731219,77,22.9,-83.16,83.44,6.86
23,airai,54,TL,1570731219,29,-8.93,125.41,66.52,5.56
24,kodiak,90,US,1570731220,93,39.95,-94.76,70.0,11.41
25,usvyaty,100,RU,1570731220,95,55.75,30.75,45.46,5.96
26,qaanaaq,50,GL,1570731221,64,77.48,-69.36,24.4,11.53
27,mahebourg,75,MU,1570731221,57,-20.41,57.7,75.2,14.99
28,rondonopolis,69,BR,1570731221,35,-16.46,-54.64,93.7,5.13
29,hatillo,1,PR,1570731222,74,18.49,-66.83,89.01,8.05
30,namatanai,5,PG,1570731222,73,-3.66,152.44,82.72,8.9
31,bluff,23,AU,1570731223,93,-23.58,149.07,60.76,8.37
32,san cristobal,26,HN,1570731223,54,14.68,-86.92,83.08,5.52
33,georgetown,20,GY,1570731224,74,6.8,-58.16,89.6,9.17
34,murdochville,0,CA,1570731224,39,48.96,-65.49,61.3,2.12
35,pevek,55,RU,1570731224,80,69.7,170.27,20.8,14.03
36,busselton,60,AU,1570731225,72,-33.64,115.35,61.0,11.54
37,liverpool,75,GB,1570731225,87,53.41,-2.98,60.01,12.75
38,hurricane,1,US,1570731226,14,37.18,-113.29,57.0,11.52
39,avarua,57,CK,1570731226,73,-21.21,-159.78,71.6,11.41
40,hermanus,71,ZA,1570731227,73,-34.42,19.24,63.0,3.0
41,nikolskoye,90,RU,1570731227,93,59.7,30.79,45.0,4.47
42,kapaa,40,US,1570731228,94,22.08,-159.32,78.8,6.93
43,pacific grove,1,US,1570731228,13,36.62,-121.92,71.6,6.93
44,lompoc,1,US,1570731229,64,34.64,-120.46,73.4,4.7
45,hobart,90,AU,1570731229,70,-42.88,147.33,48.2,9.88
46,punta arenas,75,CL,1570731229,55,-53.16,-70.91,39.2,35.57
47,grand gaube,75,MU,1570731230,57,-20.01,57.66,75.2,14.99
48,matara,70,BI,1570731230,77,-3.48,29.48,62.2,5.19
49,dera bugti,0,PK,1570731230,30,29.03,69.15,81.1,3.17
50,bambous virieux,75,MU,1570731231,57,-20.34,57.76,75.2,14.99
51,villiers,11,ZA,1570731231,70,-27.03,28.6,53.74,15.37
52,san jeronimo,0,PE,1570731232,328,-13.65,-73.37,37.4,11.41
53,santa rosa,90,AR,1570731232,34,-36.62,-64.29,86.5,4.49
54,manaquiri,75,BR,1570731233,83,-3.43,-60.46,84.2,4.7
55,esmeraldas,75,BR,1570731233,47,-19.76,-44.31,82.4,8.05
56,saint-pierre,21,FR,1570731234,87,48.95,4.24,57.2,9.17
57,kavieng,0,PG,1570731234,69,-2.57,150.8,84.16,8.8
58,kasama,79,ZM,1570731235,31,-10.21,31.19,79.66,3.06
59,saint george,75,GR,1570731235,82,39.45,22.34,66.2,3.2
60,east london,75,ZA,1570731235,63,-33.02,27.91,60.8,8.05
61,salalah,20,OM,1570731236,88,17.01,54.1,80.6,2.24
62,komsomolets,100,RU,1570731237,77,52.77,41.29,51.22,18.83
63,marsaxlokk,20,MT,1570731237,83,35.84,14.54,73.4,8.05
64,neryungri,100,RU,1570731237,93,56.66,124.71,10.0,6.2
65,nalut,16,LY,1570731238,69,31.86,10.98,71.92,15.12
66,ushuaia,75,AR,1570731238,84,-54.81,-68.31,32.0,29.97
67,college,90,US,1570731239,93,64.86,-147.8,37.4,1.75
68,butaritari,66,KI,1570731239,61,3.07,172.79,84.16,7.05
69,cabo san lucas,20,MX,1570731240,46,22.89,-109.91,93.99,5.82
70,fort nelson,75,CA,1570731240,86,58.81,-122.69,28.4,8.05
71,santa maria,40,BR,1570731241,29,-16.02,-48.01,89.6,6.93
72,saldanha,0,PT,1570731241,41,41.42,-6.55,65.62,4.94
73,fukue,75,JP,1570731242,73,35.03,136.69,71.6,9.17
74,ishigaki,0,JP,1570731242,75,24.34,124.16,76.24,15.72
75,naryan-mar,76,RU,1570731242,90,67.67,53.09,33.22,10.28
76,provideniya,0,RU,1570731243,73,64.42,-173.23,26.38,2.42
77,ostrovnoy,63,RU,1570731244,92,68.05,39.51,28.18,10.9
78,bredasdorp,57,ZA,1570731244,67,-34.53,20.04,59.0,8.05
79,arraial do cabo,75,BR,1570731244,88,-22.97,-42.02,73.4,5.82
80,haines junction,100,CA,1570731245,93,60.75,-137.51,28.72,11.64
81,mar del plata,84,AR,1570731245,57,-46.43,-67.52,49.06,20.88
82,kaya,29,NG,1570731246,37,13.31,12.68,91.18,10.14
83,noumea,0,NC,1570731247,87,-22.28,166.46,72.0,3.36
84,chuy,35,UY,1570731248,61,-33.69,-53.46,78.04,5.78
85,chapais,1,CA,1570731248,41,49.78,-74.86,59.0,8.05
86,castro,90,CL,1570731248,93,-42.48,-73.76,53.6,12.75
87,port lincoln,8,AU,1570731249,91,-34.72,135.86,51.94,13.71
88,pozo colorado,0,PY,1570731249,21,-23.49,-58.8,101.08,9.47
89,atuona,0,PF,1570731250,74,-9.8,-139.03,78.58,13.01
90,kruisfontein,8,ZA,1570731251,73,-34.0,24.73,54.1,14.64
91,jinchang,88,CN,1570731251,43,38.52,102.19,50.32,1.67
92,new norfolk,90,AU,1570731251,70,-42.78,147.06,48.2,2.58
93,yerbogachen,20,RU,1570731252,93,61.28,108.01,13.78,5.89
94,richards bay,50,ZA,1570731253,66,-28.77,32.06,67.06,16.23
95,westport,90,US,1570731253,37,41.14,-73.36,70.0,20.8
96,tasiilaq,20,GL,1570731254,64,65.61,-37.64,37.4,5.82
97,taltal,49,CL,1570731254,67,-25.41,-70.49,58.24,5.33
98,husavik,100,CA,1570731254,96,50.56,-96.99,36.0,5.99
99,ucluelet,5,CA,1570731255,81,48.94,-125.55,50.0,3.36
100,yellowknife,75,CA,1570731255,86,62.45,-114.38,36.0,6.93
101,jamestown,37,AU,1570731256,66,-33.21,138.6,46.18,10.08
102,san patricio,0,PY,1570731256,31,-26.98,-56.83,93.34,6.99
103,bang sai,20,TH,1570731256,78,14.21,100.5,82.4,3.36
104,bethel,90,US,1570731257,100,60.79,-161.76,37.4,9.17
105,upernavik,0,GL,1570731257,58,72.79,-56.15,28.72,4.61
106,chernyakhovsk,100,RU,1570731257,92,54.64,21.81,48.7,13.72
107,wawa,50,NG,1570731258,77,9.9,4.41,80.74,1.74
108,calvia,62,ES,1570731258,64,39.57,2.51,73.0,8.05
109,aripuana,40,BR,1570731259,42,-9.17,-60.63,93.7,3.06
110,vaini,100,IN,1570731259,94,15.34,74.49,70.12,4.12
111,rorvik,0,NO,1570731259,80,64.86,11.24,39.2,8.05
112,ystad,20,SE,1570731260,81,55.43,13.82,52.0,12.75
113,whitehorse,75,CA,1570731260,80,60.72,-135.06,39.0,21.92
114,hurup,43,DK,1570731260,93,56.75,8.42,52.0,8.05
115,guerrero negro,5,MX,1570731261,56,27.97,-114.04,72.28,13.87
116,batagay,100,RU,1570731261,85,67.65,134.64,8.2,2.74
117,rocha,49,UY,1570731262,64,-34.48,-54.34,79.84,9.54
118,taunggyi,90,MM,1570731262,95,20.78,97.03,63.46,2.84
119,yar-sale,100,RU,1570731262,87,66.83,70.83,40.24,16.37
120,fuling,89,CN,1570731263,96,29.71,107.39,60.04,2.08
121,mitsamiouli,20,KM,1570731263,65,-11.38,43.28,82.4,10.29
122,los llanos de aridane,75,ES,1570731263,83,28.66,-17.92,73.4,10.29
123,les cayes,15,HT,1570731264,72,18.19,-73.75,83.26,8.91
124,ponnani,75,IN,1570731265,78,10.77,75.93,80.6,3.36
125,turukhansk,2,RU,1570731265,50,65.8,87.96,27.28,11.19
126,dingle,83,PH,1570731266,87,11.0,122.67,73.18,3.96
127,urengoy,100,RU,1570731267,72,65.96,78.37,36.28,21.15
128,puerto ayora,20,EC,1570731268,60,-0.74,-90.35,73.4,20.8
129,atar,61,MR,1570731268,9,20.52,-13.05,96.04,10.54
130,chongqing,90,CN,1570731268,93,29.56,106.55,62.6,6.71
131,torbay,40,CA,1570731269,62,47.66,-52.73,57.0,8.05
132,ordubad,0,AZ,1570731270,49,38.91,46.02,71.6,9.17
133,merta,0,IN,1570731270,27,26.65,74.03,80.02,4.1
134,severomorsk,98,RU,1570731271,96,69.07,33.42,32.86,2.54
135,lagos,75,NG,1570731271,88,6.46,3.39,80.6,3.36
136,burnie,100,AU,1570731272,94,-41.05,145.91,48.0,5.01
137,bud,75,NO,1570731272,76,62.91,6.91,50.0,5.82
138,ust-nera,96,RU,1570731272,92,64.57,143.24,13.06,9.27
139,victoria,75,BN,1570731273,94,5.28,115.24,77.0,4.96
140,sao filipe,63,CV,1570731273,83,14.9,-24.5,79.3,7.03
141,coahuayana,87,MX,1570731274,76,18.62,-100.35,81.28,2.82
142,gonbad-e qabus,20,IR,1570731274,64,37.25,55.17,73.4,2.41
143,saskylakh,98,RU,1570731275,94,71.97,114.09,11.98,13.84
144,caravelas,10,BR,1570731275,58,-17.73,-39.27,81.28,13.01
145,merauke,100,ID,1570731276,95,-8.49,140.4,72.1,4.31
146,port alfred,29,ZA,1570731276,72,-33.59,26.89,61.0,5.99
147,mandurah,0,AU,1570731276,100,-32.55,115.7,60.01,10.47
148,yazman,51,SY,1570731277,29,36.74,38.46,74.8,6.78
149,humaita,20,AR,1570731277,30,-24.93,-65.37,93.2,10.29
150,avera,1,US,1570731277,41,33.19,-82.53,80.01,5.82
151,whitianga,100,NZ,1570731278,98,-36.83,175.7,60.01,5.99
152,moyale,100,ET,1570731278,79,3.52,39.05,73.36,5.87
153,juneau,90,US,1570731279,93,58.3,-134.42,46.4,13.87
154,isla aguada,20,MX,1570731279,74,18.78,-91.49,86.0,6.93
155,longyearbyen,20,NO,1570731280,68,78.22,15.63,26.6,19.46
156,bichena,22,ET,1570731280,85,10.45,38.2,51.4,5.32
157,gladstone,75,AU,1570731280,77,-23.84,151.26,66.2,6.93
158,havre-saint-pierre,1,CA,1570731281,47,50.23,-63.6,57.2,6.93
159,acapulco,75,MX,1570731281,66,16.86,-99.88,87.8,3.36
160,moron,7,HT,1570731282,72,18.56,-74.26,82.54,4.81
161,mayo,75,CA,1570731283,86,63.59,-135.9,28.4,4.7
162,ribeira grande,20,PT,1570731283,64,38.52,-28.7,71.6,11.41
163,saint-georges,100,CA,1570731285,54,46.12,-70.67,59.0,4.0
164,mwinilunga,49,ZM,1570731286,50,-11.73,24.43,72.46,1.12
165,araouane,25,ML,1570731288,11,18.9,-3.53,94.78,5.94
166,tuktoyaktuk,75,CA,1570731288,100,69.44,-133.03,28.4,4.7
167,barrow,67,AR,1570731289,35,-38.31,-60.23,76.96,13.12
168,tazovskiy,100,RU,1570731290,74,67.47,78.7,35.92,23.29
169,fortuna,1,US,1570731290,25,40.6,-124.16,62.01,3.36
170,nouadhibou,40,MR,1570731291,42,20.93,-17.03,84.2,14.99
171,svetlogorsk,7,RU,1570731291,77,53.14,59.15,36.46,5.98
172,antalaha,62,MG,1570731292,81,-14.9,50.28,76.78,14.7
173,yucca valley,1,US,1570731292,5,34.12,-116.41,80.6,14.99
174,portland,90,US,1570731292,47,43.66,-70.25,57.99,10.29
175,ewa beach,75,US,1570731293,66,21.32,-158.01,84.2,5.82
176,tuatapere,100,NZ,1570731293,91,-46.13,167.69,43.0,11.01
177,sabzevar,29,IR,1570731293,43,36.21,57.68,64.18,14.14
178,dobsina,75,SK,1570731295,81,48.82,20.37,55.4,6.93
179,hilo,90,US,1570731296,88,19.71,-155.08,79.0,5.82
180,pitkyaranta,90,RU,1570731296,92,61.57,31.48,40.96,5.43
181,mata,0,PT,1570731297,48,40.68,-7.46,66.99,1.93
182,vakhsh,95,TJ,1570731297,29,37.72,68.84,65.98,0.95
183,keetmanshoop,59,NA,1570731297,10,-26.57,18.15,78.8,10.29
184,jacksonville,40,US,1570731298,58,30.33,-81.66,84.99,13.87
185,klaksvik,100,FO,1570731298,87,62.23,-6.59,46.4,11.41
186,vanimo,53,PG,1570731299,76,-2.67,141.3,81.46,5.46
187,alofi,58,NU,1570731299,88,-19.06,-169.92,75.2,6.93
188,sambava,71,MG,1570731300,90,-14.27,50.17,68.5,2.33
189,komsomolskiy,100,RU,1570731300,96,67.55,63.78,31.6,15.39
190,bull savanna,93,JM,1570731300,64,17.89,-77.59,83.44,6.9
191,hasaki,75,JP,1570731301,100,35.73,140.83,63.0,9.17
192,pandamatenga,98,BW,1570731302,34,-18.54,25.64,78.4,2.33
193,killybegs,90,IE,1570731306,100,54.63,-8.45,55.4,11.41
194,nisia floresta,40,BR,1570731306,62,-6.09,-35.21,86.0,16.11
195,orito,90,CO,1570731306,83,0.67,-76.88,75.2,5.82
196,karatuzskoye,0,RU,1570731307,76,53.61,92.87,30.88,1.28
197,thompson,75,CA,1570731307,55,55.74,-97.86,35.6,3.36
198,san quintin,2,PH,1570731308,92,17.54,120.52,71.56,3.67
199,albesti,84,RO,1570731308,71,47.7,27.07,61.0,5.82
200,twentynine palms,1,US,1570731309,5,34.14,-116.05,80.6,14.99
201,sovetsk,99,RU,1570731310,90,55.08,21.89,50.32,10.99
202,cayenne,20,GF,1570731310,62,4.94,-52.33,87.8,14.99
203,talaya,37,RU,1570731311,51,55.79,84.89,33.01,3.0
204,hambantota,87,LK,1570731311,80,6.12,81.12,81.64,13.9
205,bowen,90,AU,1570731312,88,-20.01,148.25,71.01,1.12
206,tiksi,96,RU,1570731312,92,71.64,128.87,15.4,3.91
207,nishihara,90,JP,1570731312,93,35.74,139.53,64.99,8.05
208,ingham,88,AU,1570731313,85,-18.65,146.16,69.04,1.34
209,cidreira,1,BR,1570731313,80,-30.17,-50.22,69.22,11.17
210,pitea,90,SE,1570731314,99,65.32,21.48,37.0,3.36
211,ust-shonosha,90,RU,1570731314,96,61.15,41.34,34.84,5.68
212,kurchum,0,KZ,1570731315,50,48.57,83.65,53.56,2.74
213,luderitz,63,NA,1570731315,48,-26.65,15.16,66.2,18.34
214,karratha,0,AU,1570731316,66,-20.74,116.85,77.68,10.16
215,lidkoping,55,SE,1570731316,100,58.51,13.16,46.4,6.93
216,filadelfia,0,PY,1570731317,17,-22.35,-60.04,102.16,14.52
217,salzhemmendorf,75,DE,1570731317,87,52.07,9.59,54.0,5.82
218,moose factory,1,CA,1570731320,48,51.26,-80.61,66.2,9.17
219,poya,18,NC,1570731320,71,-21.35,165.16,71.38,7.55
220,washington,20,US,1570731321,43,38.9,-77.04,75.2,6.93
221,bakersfield,1,US,1570731321,22,35.37,-119.02,69.01,3.36
222,moussoro,57,TD,1570731322,40,13.64,16.49,92.98,1.06
223,vestmannaeyjar,20,IS,1570731322,70,63.44,-20.27,44.6,23.04
224,aksu,27,KZ,1570731323,47,52.04,76.93,53.2,10.6
225,brigantine,40,US,1570731323,40,39.41,-74.36,75.0,16.11
226,makubetsu,83,JP,1570731323,83,42.84,143.34,45.64,1.97
227,kirakira,61,SB,1570731324,86,-10.46,161.92,75.16,5.35
228,tura,0,RU,1570731324,80,64.27,100.22,13.24,2.12
229,kloulklubed,75,PW,1570731324,83,7.04,134.26,80.6,9.17
230,sungaipenuh,51,ID,1570731325,91,-2.08,101.38,62.02,1.07
231,khatanga,56,RU,1570731325,88,71.98,102.47,13.78,9.84
232,lavrentiya,0,RU,1570731326,71,65.58,-170.99,30.88,8.91
233,maragogi,63,BR,1570731326,76,-9.01,-35.22,78.4,18.34
234,lukovetskiy,100,RU,1570731326,98,64.29,41.92,33.22,7.8
235,henties bay,0,NA,1570731327,87,-22.12,14.28,63.0,5.99
236,hay river,75,CA,1570731327,86,60.82,-115.79,33.8,8.05
237,deputatskiy,100,RU,1570731327,95,69.3,139.9,9.46,0.54
238,san isidro,75,CR,1570731328,69,10.02,-84.06,77.0,10.29
239,leh,0,IN,1570731328,31,34.16,77.58,34.12,3.48
240,carnarvon,99,ZA,1570731328,14,-30.97,22.13,59.32,10.46
241,lebu,20,ET,1570731329,72,8.96,38.73,60.8,11.41
242,biak,86,ID,1570731329,81,-0.91,122.88,79.84,7.65
243,clyde river,75,CA,1570731330,100,70.47,-68.59,33.8,9.17
244,kimbe,97,PG,1570731330,92,-5.56,150.15,72.82,2.97
245,harper,40,US,1570731331,55,30.3,-99.24,89.01,16.11
246,banfora,97,BF,1570731331,78,10.64,-4.75,80.74,4.74
247,la asuncion,0,AR,1570731331,22,-26.05,-65.39,88.66,9.4
248,samarai,92,PG,1570731332,94,-10.62,150.67,72.82,5.09
249,barra do garcas,75,BR,1570731332,41,-15.89,-52.26,95.0,2.24
250,redlands,5,US,1570731333,23,34.06,-117.19,78.8,4.63
251,aska,91,IN,1570731334,92,19.61,84.67,74.26,2.7
252,lagoa,0,PT,1570731335,64,37.14,-8.45,75.2,4.7
253,makakilo city,40,US,1570731335,94,21.35,-158.09,84.2,5.05
254,coquimbo,40,CL,1570731335,67,-29.95,-71.34,60.8,13.87
255,sal rei,40,CV,1570731336,66,16.18,-22.92,84.2,17.22
256,gravdal,75,NO,1570731336,76,59.79,5.78,52.0,18.34
257,constitucion,20,MX,1570731337,33,23.99,-104.67,75.2,1.03
258,andrews,1,US,1570731337,23,32.32,-102.55,87.8,16.11
259,limoux,4,FR,1570731337,59,43.05,2.22,68.0,3.36
260,angoche,97,MZ,1570731338,76,-16.23,39.91,78.22,8.36
261,ilulissat,20,GL,1570731338,46,69.22,-51.1,30.2,17.22
262,alice springs,0,AU,1570731338,23,-23.7,133.88,53.6,9.01
263,nabire,100,ID,1570731339,97,-3.36,135.5,71.38,2.05
264,esso,99,RU,1570731339,98,55.93,158.7,32.14,3.8
265,mecca,0,SA,1570731339,48,21.43,39.83,86.14,5.98
266,souillac,12,FR,1570731340,68,45.6,-0.6,64.4,6.93
267,mukhen,100,RU,1570731340,80,48.19,136.14,46.54,5.49
268,huancabamba,94,PE,1570731340,62,-5.24,-79.45,64.0,6.11
269,darhan,0,MN,1570731342,57,49.49,105.92,23.14,2.6
270,milkovo,75,BG,1570731342,82,41.53,24.68,68.0,3.36
271,hamilton,40,CA,1570731342,67,43.26,-79.87,64.99,12.75
272,maiduguri,71,NG,1570731343,42,11.84,13.15,88.12,8.98
273,hithadhoo,100,MV,1570731343,79,-0.6,73.08,82.18,14.88
274,comodoro rivadavia,75,AR,1570731344,21,-45.87,-67.48,69.8,17.22
275,callaway,90,US,1570731344,93,46.98,-95.91,48.99,10.29
276,margate,90,AU,1570731344,70,-43.03,147.26,48.2,9.88
277,bilibino,30,RU,1570731345,80,68.06,166.44,4.42,2.42
278,deniliquin,30,AU,1570731345,86,-35.53,144.96,43.0,3.0
279,klyuchi,0,RU,1570731345,51,52.25,79.17,48.7,7.17
280,broken hill,0,AU,1570731346,40,-31.97,141.45,53.6,4.7
281,sargatskoye,100,RU,1570731346,54,55.6,73.49,51.94,13.09
282,pimentel,56,BR,1570731346,27,-3.7,-45.5,98.02,4.47
283,lata,13,IN,1570731347,71,30.78,78.62,28.72,1.12
284,gornyy,82,RU,1570731347,62,51.76,48.54,51.4,12.56
285,buraydah,40,SA,1570731347,38,26.33,43.97,87.8,6.93
286,ayan,0,IR,1570731348,55,38.23,44.7,51.58,1.42
287,coos bay,1,US,1570731349,47,43.37,-124.22,55.4,10.29
288,mapiripan,89,CO,1570731350,71,2.89,-72.13,81.82,4.39
289,kununurra,68,AU,1570731350,56,-15.77,128.74,68.0,3.36
290,taoudenni,0,ML,1570731351,16,22.68,-3.98,90.1,10.89
291,lodi,68,IT,1570731351,82,45.31,9.5,64.0,2.24
292,vanavara,0,RU,1570731351,75,60.35,102.28,19.54,3.64
293,severo-kurilsk,74,RU,1570731352,94,50.68,156.12,39.7,9.64
294,forbes,45,AU,1570731352,64,-33.38,148.01,55.0,6.92
295,berlevag,75,NO,1570731353,86,70.86,29.09,39.2,10.29
296,nizhniy kuranakh,98,RU,1570731353,93,58.84,125.49,14.86,7.58
297,paratebueno,40,CO,1570731354,66,4.38,-73.21,84.2,3.36
298,hit,0,IQ,1570731354,23,33.64,42.83,83.08,3.4
299,leningradskiy,0,RU,1570731354,69,69.38,178.42,21.34,7.84
300,lira,100,UG,1570731355,94,2.25,32.9,66.88,4.36
301,galesong,20,ID,1570731355,83,-5.32,119.37,75.2,3.36
302,port blair,11,IN,1570731356,67,11.67,92.75,83.62,4.14
303,nyurba,100,RU,1570731356,90,63.29,118.35,19.54,9.9
304,pangnirtung,90,CA,1570731356,93,66.15,-65.72,35.6,2.24
305,hami,0,CN,1570731357,23,42.84,93.51,58.78,9.87
306,hofn,75,IS,1570731357,65,64.25,-15.21,46.4,6.93
307,iwanai,100,JP,1570731357,89,42.97,140.51,51.04,5.26
308,adrar,0,DZ,1570731358,17,27.87,-0.29,91.4,12.75
309,algeciras,54,ES,1570731358,53,36.13,-5.45,77.0,23.04
310,miri,16,NG,1570731359,69,10.31,9.75,77.86,3.59
311,banepa,20,NP,1570731359,93,27.63,85.52,62.6,2.24
312,kollam,40,IN,1570731360,83,8.88,76.6,80.6,4.7
313,valentin gomez farias,20,MX,1570731360,33,24.05,-104.7,75.2,1.03
314,dongsheng,100,CN,1570731362,69,29.72,112.52,65.8,8.01
315,kalmunai,100,LK,1570731364,80,7.42,81.82,81.82,20.79
316,matamoros,75,US,1570731365,52,25.87,-97.51,93.2,14.99
317,iqaluit,90,CA,1570731365,100,63.75,-68.52,35.6,3.36
318,ambulu,25,ID,1570731366,86,-8.35,113.61,76.42,7.03
319,belomorsk,100,RU,1570731366,94,64.52,34.76,36.1,10.85
320,polis,20,CY,1570731367,83,35.04,32.42,73.4,5.82
321,olinda,75,AU,1570731368,93,-37.84,145.39,51.01,6.93
322,villa del rosario,25,AR,1570731368,20,-31.55,-63.53,97.0,20.8
323,sulphur,20,US,1570731369,58,30.24,-93.38,89.6,10.29
324,boda,36,CF,1570731369,93,4.32,17.47,70.48,2.52
325,daru,93,PG,1570731370,96,-9.07,143.21,72.64,3.29
326,cockburn town,40,TC,1570731370,70,21.46,-71.14,86.0,10.29
327,doha,0,QA,1570731370,66,25.29,51.53,89.6,4.7
328,cururupu,95,BR,1570731371,48,-1.82,-44.87,88.84,7.06
329,campeche,40,MX,1570731371,70,19.84,-90.54,87.8,5.82
330,beira,0,ES,1570731371,82,43.2,-8.36,68.0,6.93
331,kaitangata,100,NZ,1570731372,80,-46.28,169.85,45.0,27.0
332,yiyang,96,CN,1570731372,75,28.59,112.35,65.44,10.34
333,gat,40,SN,1570731373,74,14.69,-16.54,95.0,10.29
334,bubaque,73,GW,1570731373,73,11.28,-15.83,82.9,9.23
335,silver city,1,US,1570731375,24,32.77,-108.28,73.99,11.41
336,maracaju,10,BR,1570731376,25,-21.61,-55.17,97.3,8.55
337,taicheng,0,CN,1570731376,85,22.25,112.8,78.01,1.01
338,piacenza,92,IT,1570731376,100,45.05,9.69,64.0,2.24
339,kochubey,1,RU,1570731377,85,44.39,46.54,58.24,14.57
340,stokmarknes,20,NO,1570731377,86,68.56,14.91,39.0,5.82
341,hervey bay,40,AU,1570731378,82,-25.3,152.85,61.0,5.82
342,dunedin,100,NZ,1570731378,97,-45.87,170.5,46.0,29.41
343,hauterive,1,CA,1570731379,66,49.18,-68.27,55.99,6.93
344,huilong,98,CN,1570731379,92,31.15,106.5,59.86,6.55
345,the valley,20,AI,1570731380,69,18.22,-63.06,87.8,4.7
346,nouakchott,31,MR,1570731380,11,18.08,-15.98,102.2,14.99
347,pangai,20,TO,1570731380,94,-19.8,-174.35,75.2,8.05
348,codrington,40,AU,1570731381,93,-28.95,153.24,55.4,3.27
349,oksfjord,75,NO,1570731381,74,70.24,22.35,37.4,4.7
350,gebre guracha,59,ET,1570731381,76,9.8,38.4,62.38,3.17
351,cavalcante,78,BR,1570731382,30,-13.79,-47.46,83.44,7.42
352,nurota,19,UZ,1570731382,37,40.56,65.69,66.2,4.7
353,mackay,20,CA,1570731383,68,53.65,-115.58,28.4,4.7
354,korcula,75,HR,1570731383,73,42.96,17.14,69.8,1.12
355,dharchula,17,IN,1570731384,81,29.85,80.53,41.5,1.83
356,port hardy,75,CA,1570731384,86,50.7,-127.42,39.2,2.24
357,soubre,57,CI,1570731385,95,5.79,-6.61,75.34,4.4
358,te anau,100,NZ,1570731385,93,-45.41,167.72,41.86,11.14
359,kuusamo,90,FI,1570731386,98,65.96,29.19,32.0,5.82
360,impfondo,67,CD,1570731387,91,1.62,18.06,73.72,1.42
361,nuevo progreso,20,US,1570731387,46,26.05,-97.95,93.2,17.22
362,puerto escondido,75,MX,1570731388,70,15.86,-97.07,86.0,5.24
363,strezhevoy,100,RU,1570731388,65,60.73,77.6,39.52,11.3
364,minas,73,UY,1570731389,42,-34.38,-55.24,84.2,11.41
365,dalvik,20,SE,1570731389,93,57.79,14.13,48.0,8.05
366,bourail,6,NC,1570731389,85,-21.57,165.5,64.0,2.83
367,mankapur,0,IN,1570731390,68,28.32,79.86,71.38,2.18
368,cap malheureux,75,MU,1570731391,57,-19.98,57.61,75.2,14.99
369,terrace,90,CA,1570731391,55,54.52,-128.61,36.0,2.24
370,pinawa,100,CA,1570731391,100,50.15,-95.88,32.0,11.39
371,mazeikiai,96,LT,1570731392,92,56.32,22.33,46.36,4.59
372,geraldton,40,CA,1570731392,67,49.72,-86.95,59.0,13.87
373,amapa,40,HN,1570731393,59,15.09,-87.97,89.6,3.36
374,northam,4,AU,1570731393,93,-31.65,116.67,53.6,3.21
375,mersing,5,MY,1570731394,72,2.43,103.84,83.44,7.67
376,shyryayeve,98,UA,1570731395,59,47.38,30.2,60.04,7.29
377,nayoro,100,JP,1570731395,92,44.36,142.46,46.36,3.65
378,barabai,34,ID,1570731395,84,-2.59,115.38,75.16,1.87
379,puerto leguizamo,99,CO,1570731396,99,-0.19,-74.78,71.2,3.79
380,atherton,40,AU,1570731396,88,-17.27,145.48,69.8,4.0
381,palauig,35,PH,1570731396,81,15.44,119.9,73.9,4.11
382,menongue,95,AO,1570731397,45,-14.66,17.68,72.82,4.76
383,bandarbeyla,0,SO,1570731397,89,9.49,50.81,80.02,9.72
384,bonavista,0,CA,1570731398,65,48.65,-53.11,54.0,3.0
385,arman,100,RU,1570731398,78,59.7,150.17,38.62,20.9
386,ponta do sol,92,BR,1570731398,69,-20.63,-46.0,74.62,7.62
387,minab,75,IR,1570731399,74,27.15,57.07,91.4,2.24
388,palmares do sul,51,BR,1570731400,51,-30.26,-50.51,90.0,3.0
389,snezhnogorsk,94,RU,1570731400,97,69.19,33.23,32.14,1.79
390,riyadh,40,SA,1570731400,27,24.63,46.72,87.8,4.7
391,katherine,98,AU,1570731401,34,-14.47,132.26,68.0,3.36
392,la palma,90,CO,1570731401,64,5.36,-74.39,82.18,2.34
393,matagami,40,NG,1570731401,100,9.67,8.4,68.0,11.41
394,itaituba,40,BR,1570731402,52,-4.26,-55.99,93.2,8.05
395,ballarat,100,AU,1570731402,95,-37.56,143.86,44.01,3.0
396,dandong,32,CN,1570731403,90,40.12,124.37,54.64,4.88
397,roma,16,IT,1570731403,72,41.89,12.48,71.6,5.82
398,ust-barguzin,58,RU,1570731404,79,53.41,109.03,24.04,2.21
399,kattivakkam,20,IN,1570731404,79,13.22,80.32,84.99,4.7
400,rivadavia,31,AR,1570731405,11,-31.53,-68.59,92.62,1.17
401,ericeira,0,PT,1570731405,44,38.96,-9.42,78.8,8.05
402,buala,100,SB,1570731406,79,-8.15,159.59,77.86,3.42
403,mae sot,94,MM,1570731406,97,16.71,98.57,68.14,2.53
404,kitami,100,JP,1570731407,73,43.8,143.9,51.58,6.31
405,narnaund,0,IN,1570731407,40,29.22,76.14,78.58,4.97
406,vila franca do campo,20,PT,1570731408,60,37.72,-25.43,71.6,6.93
407,sisimiut,18,GL,1570731408,60,66.94,-53.67,31.96,7.19
408,port-gentil,75,GA,1570731409,100,-0.72,8.78,77.0,12.75
409,namibe,85,AO,1570731409,84,-15.19,12.15,68.68,6.0
410,sefophe,75,BW,1570731410,82,-22.18,27.97,68.0,16.11
411,borogontsy,95,RU,1570731410,94,62.67,131.17,19.36,5.28
412,george town,75,MY,1570731411,88,5.42,100.33,78.8,8.05
413,fayetteville,75,US,1570731411,78,36.06,-94.16,75.99,20.8
414,ormara,0,PK,1570731411,79,25.21,64.64,82.0,9.74
415,progreso,90,UY,1570731412,47,-34.68,-56.22,82.99,12.75
416,rosarito,75,CO,1570731412,77,4.91,-75.23,80.6,8.05
417,albanel,20,CA,1570731413,81,48.88,-72.44,60.01,4.7
418,saint-augustin,75,CA,1570731413,44,45.63,-73.98,64.0,11.41
419,kabo,62,CF,1570731414,90,7.69,18.62,74.26,3.4
420,pavlikeni,71,BG,1570731414,77,43.24,25.31,68.0,2.24
421,vila velha,21,BR,1570731415,62,-3.71,-38.6,84.2,17.22
422,tautira,75,PF,1570731415,65,-17.73,-149.15,78.8,3.36
423,kargat,49,RU,1570731416,69,55.19,80.28,38.08,9.77
424,goderich,57,CA,1570731416,51,43.74,-81.71,68.0,3.0
425,passy,40,FR,1570731416,66,45.92,6.69,66.2,4.7
426,ancud,90,CL,1570731417,100,-41.87,-73.83,53.6,12.75
427,umm lajj,0,SA,1570731417,40,25.02,37.27,84.7,6.85
428,alihe,0,CN,1570731417,41,50.57,123.73,23.86,6.79
429,anloga,20,GH,1570731418,83,5.79,0.9,80.6,12.75
430,kahului,20,US,1570731418,74,20.89,-156.47,82.4,20.96
431,vikarabad,75,IN,1570731418,94,17.34,77.9,72.0,3.36
432,muromtsevo,100,RU,1570731419,56,56.37,75.24,45.28,10.48
433,guadalupe y calvo,0,MX,1570731419,37,26.09,-106.96,71.2,6.34
434,gogapur,0,IN,1570731419,76,23.55,75.52,72.46,2.22
435,santa marta,75,CO,1570731420,79,11.24,-74.21,86.0,5.82
436,moree,29,AU,1570731420,51,-29.46,149.84,60.8,14.99
437,atambua,51,ID,1570731421,59,-9.11,124.89,69.04,2.56
438,port washington,90,US,1570731421,72,43.39,-87.88,71.01,13.87
439,egvekinot,7,RU,1570731422,88,66.32,-179.17,13.06,0.76
440,cadillac,40,US,1570731422,45,44.25,-85.4,71.01,12.75
441,sao jose da coroa grande,63,BR,1570731422,76,-8.9,-35.15,78.4,18.34
442,revda,100,RU,1570731423,98,67.94,34.55,31.06,3.13
443,kristiansund,75,NO,1570731423,66,63.12,7.73,48.2,11.41
444,marsa matruh,0,EG,1570731425,73,31.35,27.25,75.2,3.36
445,quelimane,91,MZ,1570731426,74,-17.88,36.89,80.6,9.17
446,manggar,58,ID,1570731426,79,-2.88,108.27,80.38,7.43
447,ossora,100,RU,1570731429,93,59.24,163.07,40.24,28.95
448,barabinsk,96,RU,1570731431,62,55.35,78.35,40.6,11.42
449,pundaguitan,91,PH,1570731431,75,6.37,126.17,82.18,8.79
450,aracoiaba,18,BR,1570731432,27,-4.37,-38.81,95.68,9.72
451,guaymas,20,MX,1570731432,79,27.92,-110.9,89.01,9.17
452,linjiang,98,CN,1570731433,94,41.81,126.91,47.62,3.11
453,presidencia roque saenz pena,0,AR,1570731433,22,-26.79,-60.44,98.74,10.05
454,saint-joseph,7,FR,1570731433,77,43.56,6.97,69.8,1.12
455,muzhi,99,RU,1570731434,84,65.4,64.7,33.58,8.61
456,mandan,90,US,1570731434,86,46.83,-100.89,30.2,19.46
457,parintins,8,BR,1570731435,32,-2.63,-56.73,98.74,5.44
458,sinop,0,TR,1570731435,72,42.03,35.15,64.18,6.82
459,paamiut,43,GL,1570731436,68,61.99,-49.67,38.44,18.83
460,beneditinos,20,BR,1570731436,22,-5.46,-42.36,102.2,8.05
461,kommunisticheskiy,34,RU,1570731437,83,61.68,64.48,32.32,4.1
462,astoria,1,US,1570731437,61,46.19,-123.83,54.0,16.11
463,hualmay,12,PE,1570731438,56,-11.1,-77.61,68.14,10.0
464,mareeba,40,AU,1570731438,88,-16.99,145.42,69.8,1.59
465,camacha,40,PT,1570731438,64,33.08,-16.33,71.6,10.29
466,eureka,1,US,1570731439,25,40.8,-124.16,62.01,3.36
467,khash,0,IR,1570731439,16,28.22,61.21,70.3,12.46
468,katsuura,75,JP,1570731439,83,33.93,134.5,69.8,8.05
469,gizo,58,IL,1570731440,69,31.8,34.94,78.8,4.7
470,necochea,63,AR,1570731440,44,-38.55,-58.74,68.0,8.99
471,bukan,0,IR,1570731441,52,36.52,46.21,55.0,0.91
472,prince rupert,1,CA,1570731441,93,54.32,-130.32,42.8,3.36
473,narsaq,20,GL,1570731442,52,60.91,-46.05,41.0,3.36
474,zhigansk,2,RU,1570731442,85,66.77,123.37,16.84,18.14
475,beloha,25,MG,1570731442,46,-25.17,45.06,79.3,7.5
476,tsaratanana,3,MG,1570731443,63,-16.8,47.65,70.66,12.0
477,shelburne,1,CA,1570731443,48,44.08,-80.2,66.0,10.29
478,quatre cocos,75,MU,1570731444,57,-20.21,57.76,75.2,14.99
479,faanui,100,PF,1570731444,80,-16.48,-151.75,75.52,17.43
480,half moon bay,40,US,1570731446,24,37.46,-122.43,71.6,4.7
481,tchollire,21,CM,1570731446,84,8.4,14.17,75.16,0.97
482,owando,100,CG,1570731447,84,-0.49,15.91,73.9,1.79
483,snasa,8,NO,1570731448,93,64.25,12.38,35.6,10.29
484,yumen,74,CN,1570731448,27,40.29,97.04,52.3,2.89
485,benguela,75,AO,1570731449,100,-12.58,13.4,73.4,6.93
486,dakar,40,SN,1570731449,74,14.69,-17.45,86.0,10.29
487,bathsheba,40,BB,1570731449,62,13.22,-59.52,87.8,12.75
488,carahue,100,CL,1570731450,59,-38.71,-73.16,66.2,6.93
489,tessalit,54,ML,1570731450,41,20.2,1.01,85.24,20.1
490,dinguiraye,5,GN,1570731451,81,11.29,-10.71,79.48,5.39
491,la seyne-sur-mer,0,FR,1570731451,32,43.1,5.88,71.01,9.17
492,trinidad,40,BO,1570731451,37,-14.83,-64.9,96.8,3.38
493,naze,75,NG,1570731452,83,5.43,7.07,80.6,8.05
494,kampong thum,30,KH,1570731452,80,12.71,104.89,77.32,5.43
495,salvador,20,BR,1570731452,65,-12.98,-38.48,82.4,13.87
496,ngunguru,100,NZ,1570731453,96,-35.62,174.5,59.0,5.01
497,anchorage,90,US,1570731453,93,61.22,-149.89,42.01,4.7
498,pontianak,98,ID,1570731454,97,-0.02,109.34,73.36,0.49
499,swan hill,56,AU,1570731454,91,-35.34,143.56,40.96,6.83
500,taft,84,PH,1570731454,93,11.9,125.42,76.24,6.17
501,pombas,57,BR,1570731455,39,-15.9,-54.74,89.56,3.82
502,aswan,63,EG,1570731455,19,24.09,32.9,100.4,10.29
503,mount gambier,40,AU,1570731456,100,-37.83,140.78,39.2,3.34
504,diamantino,76,BR,1570731456,36,-14.4,-56.44,93.34,10.03
505,pacifica,40,US,1570731457,24,37.61,-122.49,73.4,4.7
506,yulara,0,AU,1570731457,16,-25.24,130.99,62.6,4.7
507,ahipara,100,NZ,1570731457,100,-35.17,173.16,59.0,9.79
508,qandala,6,SO,1570731458,76,11.47,49.87,80.56,3.76
509,locri,20,IT,1570731458,69,38.24,16.26,75.2,1.12
510,port hawkesbury,1,CA,1570731459,62,45.62,-61.36,60.01,9.17
511,butembo,43,CD,1570731459,74,0.12,29.29,62.56,3.29
512,cherskiy,83,RU,1570731460,76,68.75,161.3,14.32,6.99
513,belmonte,0,PT,1570731460,54,40.36,-7.35,68.0,1.93
514,broome,81,GB,1570731461,71,52.47,1.45,59.0,8.05
515,puerto maldonado,0,PE,1570731465,18,-12.59,-69.19,104.5,3.44
516,stillwater,90,US,1570731466,59,36.12,-97.06,66.2,8.05
517,siva,20,GR,1570731466,83,35.21,25.04,73.99,2.24
518,sitka,0,US,1570731466,71,37.17,-99.65,42.01,27.0
519,toora-khem,0,RU,1570731467,60,52.47,96.11,23.68,1.83
520,uglegorsk,91,RU,1570731468,90,49.08,142.06,53.74,13.62
521,kavaratti,44,IN,1570731468,70,10.57,72.64,83.8,4.31
522,yelizovo,20,RU,1570731468,81,53.19,158.38,42.8,4.47
523,roald,75,NO,1570731469,81,62.58,6.12,51.01,10.29
524,gweta,100,BW,1570731470,26,-20.21,25.26,84.88,14.25
525,berezanka,48,UA,1570731470,60,46.86,31.39,60.58,7.49
526,tomatlan,100,MX,1570731470,58,19.93,-105.25,88.12,3.2
527,monywa,92,MM,1570731471,90,22.12,95.13,75.34,3.98
528,burriana,2,ES,1570731471,73,39.89,-0.08,72.0,3.36
529,isangel,54,VU,1570731471,74,-19.55,169.27,69.76,4.44
530,tateyama,10,JP,1570731472,84,36.66,137.31,63.0,2.5
531,saint-francois,24,FR,1570731472,82,46.42,3.91,59.0,3.36
532,nara,37,JP,1570731473,83,34.68,135.8,73.4,12.75
533,ust-kut,89,RU,1570731474,78,56.78,105.75,18.64,2.32
534,aquidauana,35,BR,1570731474,28,-20.47,-55.78,98.38,7.67
535,osoyoos,1,CA,1570731475,38,49.03,-119.47,42.8,6.93
536,horsham,99,AU,1570731475,93,-36.71,142.2,42.04,4.83
537,rawson,100,AR,1570731475,49,-43.3,-65.11,60.94,19.5
538,nome,40,US,1570731476,49,30.04,-94.42,90.0,11.41
539,labuhan,34,ID,1570731476,84,-2.54,115.51,75.16,1.87
540,ambrolauri,0,GE,1570731476,56,42.52,43.15,69.8,14.99
541,pisco,40,PE,1570731477,30,-13.71,-76.2,71.6,11.41
542,derzhavinsk,100,KZ,1570731477,82,51.1,66.31,51.04,9.98
543,elizabeth city,90,US,1570731478,68,36.3,-76.22,69.01,19.46
544,shingu,100,JP,1570731478,87,33.72,135.99,75.34,24.49
545,kidal,50,ML,1570731479,32,18.44,1.41,90.82,13.44
546,luau,54,CD,1570731479,79,-10.7,22.23,71.2,5.18
547,jieshou,73,CN,1570731480,68,33.26,115.35,65.08,5.18
548,jinji,0,CN,1570731480,91,22.16,112.49,72.64,1.93
549,uarini,20,BR,1570731480,78,-2.98,-65.16,82.4,5.82
550,muyezerskiy,100,RU,1570731481,93,63.93,31.65,30.88,6.11
551,wanning,75,AT,1570731481,93,48.64,13.53,51.01,9.17
552,itarema,18,BR,1570731482,43,-2.92,-39.92,89.38,17.77
553,old shinyanga,32,TZ,1570731482,41,-3.56,33.41,80.56,17.78
554,aklavik,20,CA,1570731483,92,68.22,-135.01,28.4,2.24
555,ouadda,67,CF,1570731483,89,8.07,22.4,70.48,1.51
556,puerto baquerizo moreno,40,EC,1570731484,64,-0.9,-89.6,73.4,16.11
557,dawei,100,MM,1570731484,77,14.07,98.19,82.54,6.63
558,nagari,20,IN,1570731484,83,13.32,79.59,82.4,10.29
559,bayji,0,IQ,1570731485,18,34.93,43.49,81.64,5.76
560,rio grande,0,BR,1570731485,26,-32.03,-52.1,91.4,6.93
561,ananindeua,75,BR,1570731486,70,-1.37,-48.4,86.0,8.05
562,port elizabeth,1,US,1570731486,38,39.31,-74.98,75.0,17.22
563,gasa,86,BT,1570731487,91,27.91,89.73,31.24,3.68
564,nargana,55,PA,1570731487,71,9.44,-78.59,82.54,5.15
565,townsville,75,AU,1570731487,83,-19.26,146.82,73.4,5.82
566,sechura,47,PE,1570731488,94,-5.56,-80.82,60.04,14.33
567,amazar,100,RU,1570731488,69,53.86,120.88,20.08,4.76
568,la ronge,20,CA,1570731488,55,55.1,-105.3,37.4,8.05
569,qasigiannguit,20,GL,1570731489,46,68.82,-51.19,30.2,17.22
570,mantua,84,IT,1570731489,87,45.16,10.79,63.0,3.36
571,ust-ilimsk,27,RU,1570731489,78,57.96,102.73,19.18,2.26
572,carutapera,95,BR,1570731490,76,-1.2,-46.02,81.28,23.51
573,xihe,100,CN,1570731491,62,34.02,105.29,48.7,1.79
574,abu dhabi,0,AE,1570731491,55,24.47,54.37,89.6,3.36
575,teseney,10,ER,1570731492,34,15.11,36.66,91.18,3.7
576,baiao,95,BR,1570731492,42,-2.79,-49.67,92.8,3.81
577,roebourne,0,AU,1570731493,44,-20.77,117.15,74.44,10.76
578,charters towers,1,AU,1570731493,95,-20.07,146.27,63.64,4.34
579,zaria,29,NG,1570731493,81,11.11,7.72,74.08,3.16
580,ketchikan,90,US,1570731494,81,55.34,-131.65,48.2,8.05
581,mnichovice,20,CZ,1570731494,87,49.94,14.71,52.0,10.29
582,klamath falls,1,US,1570731495,30,42.22,-121.78,45.0,5.82
583,abyek,0,IR,1570731496,29,36.04,50.53,66.2,6.93
584,salinas,1,US,1570731496,33,36.67,-121.66,71.6,5.82
585,abu kamal,0,SY,1570731497,19,34.45,40.92,83.8,5.82
586,lewistown,90,US,1570731497,100,40.39,-90.15,66.0,10.29
587,chaihe,25,CN,1570731497,89,44.77,129.68,40.96,3.96
588,valparaiso,1,US,1570731498,56,41.47,-87.06,73.4,9.17
589,paso de carrasco,75,UY,1570731498,39,-34.86,-56.05,82.99,11.41
590,vardo,1,US,1570731498,46,39.62,-77.74,72.0,5.82
591,opuwo,75,NA,1570731499,27,-18.06,13.84,73.54,15.23
592,brae,100,GB,1570731499,70,60.4,-1.35,50.0,18.34
593,okha,83,RU,1570731500,87,53.59,142.95,44.92,12.74
594,miramar,40,CR,1570731500,73,10.09,-84.73,79.0,10.29
595,bogorodskoye,67,RU,1570731501,90,52.37,140.44,35.92,3.81
596,khandagayty,2,MN,1570731501,69,50.73,92.07,40.24,4.95
597,yaan,48,NG,1570731501,85,7.38,8.57,77.5,1.63
598,manutuke,100,NZ,1570731502,68,-38.68,177.91,61.0,7.0
599,sao joao da barra,75,BR,1570731502,65,-21.64,-41.05,82.4,16.11
600,innisfail,81,AU,1570731503,79,-17.52,146.03,71.02,0.73
601,fort saint james,18,CA,1570731503,40,54.43,-124.25,37.18,0.79
602,oktyabrskiy,90,RU,1570731503,87,55.61,37.97,50.0,11.18
603,santa isabel do rio negro,25,BR,1570731504,44,-0.41,-65.02,92.8,1.72
604,bali,93,CN,1570731504,89,32.29,119.4,72.0,1.77
605,mount isa,0,AU,1570731505,15,-20.73,139.49,66.2,9.17
606,jumla,1,NP,1570731505,90,29.28,82.18,42.04,3.77
607,balakovo,90,RU,1570731506,66,52.02,47.82,51.58,10.22
608,edenderry,75,IE,1570731506,87,53.34,-7.05,55.99,11.41
609,saint anthony,1,US,1570731507,42,43.97,-111.68,30.0,4.18
610,ust-tsilma,100,RU,1570731507,90,65.44,52.15,32.86,7.68
611,chimbote,84,PE,1570731507,61,-9.08,-78.59,68.86,11.5
612,kempsey,87,AU,1570731508,91,-31.08,152.84,52.0,3.2
613,lufilufi,40,WS,1570731509,88,-13.87,-171.6,77.0,5.82
614,beringovskiy,99,RU,1570731509,66,63.05,179.32,31.96,1.34
615,maloy,100,ID,1570731509,96,1.0,118.1,73.18,1.07
616,coihaique,40,CL,1570731510,47,-45.58,-72.07,57.2,9.17
617,sao jose do belmonte,3,BR,1570731510,22,-7.86,-38.76,95.68,16.62
618,neka,75,IR,1570731511,83,36.65,53.3,69.8,4.7
619,port macquarie,91,AU,1570731511,93,-31.43,152.91,52.0,7.38
620,emba,20,CY,1570731512,83,34.81,32.42,77.0,5.82
621,zihuatanejo,75,MX,1570731513,62,17.64,-101.55,87.8,5.82
622,crixas,69,BR,1570731513,40,-14.55,-49.97,92.08,4.44
623,kathmandu,20,NP,1570731513,88,27.71,85.32,62.6,2.24
624,jabinyanah,20,TN,1570731514,65,35.03,10.91,77.0,8.05
625,leshukonskoye,100,RU,1570731514,97,64.9,45.76,33.4,8.11
626,san pedro,40,AR,1570731514,54,-33.68,-59.66,86.0,4.0
627,kikwit,100,CD,1570731515,89,-5.04,18.82,73.72,1.0
628,tucurui,100,BR,1570731515,51,-3.77,-49.67,88.84,0.32
629,cabedelo,75,BR,1570731516,69,-6.97,-34.84,82.4,18.34
630,anadyr,20,RU,1570731516,92,64.73,177.51,21.0,6.71
631,nelson bay,75,AU,1570731516,93,-32.72,152.14,55.0,4.7
632,abalak,100,NE,1570731517,45,15.46,6.28,82.0,1.21
633,paita,70,PE,1570731517,290,-5.09,-81.11,62.6,13.87
634,nuevo imperial,67,PE,1570731518,77,-13.08,-76.32,61.12,7.49
635,ludvika,100,SE,1570731518,100,60.15,15.18,46.99,3.36
636,laguna,20,BZ,1570731518,70,16.17,-88.94,87.8,9.17
637,evensk,100,RU,1570731519,69,61.92,159.24,29.08,8.71
638,znamenskoye,100,RU,1570731519,57,57.13,73.82,47.26,10.54
639,tornio,90,FI,1570731520,100,61.12,27.27,43.0,4.7
640,poso,44,ID,1570731520,78,-1.4,120.75,66.88,3.64
641,natal,40,BR,1570731520,62,-5.81,-35.21,86.0,16.11
642,robat karim,0,IR,1570731521,20,35.49,51.08,69.8,6.41
643,mandalgovi,86,MN,1570731521,52,45.76,106.27,34.12,9.62
644,san andres,17,PH,1570731521,95,13.32,122.68,73.72,3.76
645,ocos,75,GT,1570731522,70,14.51,-92.19,87.8,6.93
646,ambanja,74,MG,1570731522,82,-13.68,48.45,79.48,2.68
647,koutiala,25,ML,1570731523,35,12.39,-5.46,88.84,3.36
648,shelabolikha,37,RU,1570731523,84,53.41,82.62,41.14,6.92
649,sola,93,TZ,1570731524,50,-3.17,33.8,75.7,13.5
650,panguna,52,PG,1570731524,96,-6.32,155.48,68.86,2.42
651,griffith,17,AU,1570731524,76,-34.29,146.06,48.2,3.36
652,chute-aux-outardes,1,CA,1570731525,58,49.12,-68.38,55.99,4.7
653,shahr-e babak,0,IR,1570731525,13,30.12,55.12,63.28,12.52
654,emerald,90,AU,1570731526,82,-23.53,148.16,68.0,9.17
655,padampur,0,IN,1570731526,24,29.71,73.62,82.54,6.2
656,tongliao,0,CN,1570731527,31,43.61,122.27,38.62,7.77
657,dovers,40,VC,1570731527,70,12.88,-61.18,86.0,12.01
658,port arthur,20,US,1570731528,55,29.9,-93.93,89.6,12.75
659,hirado,20,JP,1570731528,77,33.32,129.49,69.8,8.05
660,mehamn,75,NO,1570731528,86,71.03,27.85,39.2,10.29
661,parkes,54,AU,1570731529,64,-33.14,148.18,55.0,6.73
662,boca do acre,42,BR,1570731529,41,-8.76,-67.39,92.98,3.86
663,viedma,65,AR,1570731529,24,-40.81,-62.99,77.86,19.98
664,bonthe,29,SL,1570731530,76,7.53,-12.5,81.46,11.03
665,flin flon,75,CA,1570731530,51,54.77,-101.88,35.6,3.36
666,nanakuli,40,US,1570731530,94,21.39,-158.15,84.2,5.05
667,mopipi,100,BW,1570731531,16,-21.2,24.86,85.96,10.84
668,verkhoyansk,100,RU,1570731531,76,67.55,133.39,9.82,2.39
669,charleville-mezieres,61,FR,1570731531,87,49.77,4.72,53.6,10.29
670,smithers,75,CA,1570731532,92,54.78,-127.17,28.4,5.82
671,methoni,75,GR,1570731532,88,36.82,21.7,72.0,4.7
672,ixtapa,40,MX,1570731533,70,20.71,-105.21,90.0,9.17
673,chuhar kana,0,PK,1570731533,57,31.75,73.8,78.8,3.64
674,nanortalik,0,GL,1570731534,71,60.14,-45.24,39.34,9.19
675,poum,75,MK,1570731534,68,41.28,20.71,66.2,9.17
676,omsukchan,100,RU,1570731534,95,62.53,155.8,19.36,1.3
677,apacilagua,75,HN,1570731535,54,13.48,-87.08,78.8,3.89
678,manokwari,72,ID,1570731535,66,-0.87,134.08,72.64,5.0
679,zvishavane,100,ZW,1570731536,93,-20.32,30.05,63.82,19.54
680,kota belud,75,MY,1570731536,88,6.35,116.43,75.2,5.82
681,vestmanna,98,FO,1570731537,87,62.16,-7.17,46.4,11.41
682,mogadishu,33,SO,1570731537,86,2.04,45.34,80.02,12.95
683,nemuro,100,JP,1570731537,83,43.32,145.57,60.22,14.04
684,manaure,40,CO,1570731538,79,11.78,-72.45,86.0,12.75
685,granadilla de abona,75,ES,1570731539,69,28.12,-16.58,75.99,12.75
686,moissala,35,TD,1570731539,86,8.34,17.77,75.52,1.51
687,santa cruz de la palma,75,ES,1570731539,78,28.68,-17.76,73.4,4.7
688,victor harbor,15,AU,1570731540,81,-35.55,138.62,53.01,5.82
689,trat,54,TH,1570731540,89,12.25,102.51,82.99,1.1
690,coolidge,1,US,1570731541,19,32.98,-111.52,82.99,5.82
691,khandyga,100,RU,1570731541,95,62.65,135.58,25.66,5.99
692,ponta delgada,20,PT,1570731541,60,37.73,-25.67,71.6,6.93
693,montepuez,79,MZ,1570731542,64,-13.13,39.0,76.24,6.67
694,kologriv,100,RU,1570731542,96,58.83,44.31,35.74,5.27
695,yeppoon,75,AU,1570731543,73,-23.13,150.74,69.8,5.82
696,bougouni,43,ML,1570731543,58,11.42,-7.49,83.08,3.7
697,anshun,34,CN,1570731543,98,26.25,105.93,62.56,1.09
698,lovozero,100,RU,1570731544,98,68.01,35.02,29.62,2.04
699,vrangel,59,RU,1570731545,91,42.73,133.08,56.8,2.5
700,tres arroyos,70,AR,1570731545,32,-38.38,-60.28,77.5,12.64
701,tuyen quang,28,VN,1570731546,91,21.82,105.22,73.72,0.38
702,praia,75,BR,1570731546,47,-20.25,-43.81,82.4,12.75
703,kalemie,0,CD,1570731546,59,-5.95,29.2,72.64,1.43
704,srednekolymsk,100,RU,1570731547,86,67.46,153.71,15.58,7.44
705,conde,62,BR,1570731547,75,-11.81,-37.61,78.04,15.14
706,kolokani,25,ML,1570731547,23,13.58,-8.03,87.94,6.16
707,lerwick,20,GB,1570731548,66,60.15,-1.15,50.0,19.46
708,otradnoye,90,RU,1570731548,93,59.77,30.8,45.0,4.47
709,fairbanks,90,US,1570731549,93,64.84,-147.72,37.4,2.4
710,sangar,66,RU,1570731549,74,63.92,127.47,19.36,0.38
711,batagay-alyta,100,RU,1570731550,79,67.8,130.41,8.38,4.0
712,okhotsk,100,RU,1570731550,98,59.36,143.24,35.38,11.54
713,suatu,90,RO,1570731551,71,46.77,23.97,57.2,3.36
714,ayorou,42,NE,1570731551,41,14.73,0.92,90.82,16.32
715,corrales,87,CO,1570731551,90,5.83,-72.84,54.46,2.14
716,banda aceh,69,ID,1570731552,93,5.56,95.32,72.82,2.65
717,balaipungut,0,ID,1570731552,94,1.11,101.31,74.08,1.67
718,juquia,93,BR,1570731552,62,-24.32,-47.63,79.3,5.4
719,mazagao,20,BR,1570731553,49,-0.12,-51.29,93.2,12.75
720,yatou,75,CM,1570731554,88,3.63,9.81,80.6,2.24
721,quang ngai,6,VN,1570731554,85,15.12,108.8,77.68,8.35
722,askino,89,RU,1570731554,89,56.09,56.58,37.54,6.94
723,high prairie,6,CA,1570731555,40,55.43,-116.48,36.64,8.36
724,tecoanapa,75,MX,1570731555,66,16.99,-99.26,87.8,3.36
725,utete,100,TZ,1570731556,95,-7.99,38.76,74.62,4.95
726,bilma,74,NE,1570731556,17,18.69,12.92,95.32,6.62
727,puruliya,0,IN,1570731556,85,23.33,86.37,74.44,3.72
728,masuguru,96,MZ,1570731557,47,-11.38,38.46,83.62,6.93
729,ures,0,MX,1570731557,41,30.73,-112.95,89.01,1.01
730,sorong,89,ID,1570731557,99,-0.86,131.25,72.1,1.55
731,gari,3,RU,1570731558,82,59.43,62.35,32.14,4.29
732,parker,90,US,1570731558,87,43.4,-97.14,42.8,20.8
733,lesnyye polyany,90,RU,1570731559,100,55.97,37.87,50.0,8.95
734,baykit,0,RU,1570731559,65,61.68,96.39,21.16,1.18
735,zhicheng,96,CN,1570731559,67,35.04,112.59,64.0,2.4
736,del rio,20,US,1570731560,55,29.36,-100.9,87.8,11.41
737,betera,16,ES,1570731560,73,39.58,-0.45,72.0,3.36
738,bajil,0,ES,1570731561,85,38.23,-2.07,62.01,5.01
739,oranjestad,40,AW,1570731561,70,12.52,-70.03,87.8,16.11
740,ngorongoro,38,TZ,1570731562,69,-3.24,35.49,67.6,5.16
741,killorglin,75,IE,1570731562,82,52.1,-9.78,57.2,17.22
742,carnot,70,CF,1570731563,93,4.94,15.87,70.3,4.61
743,sovetskiy,100,RU,1570731563,94,56.76,48.47,42.04,8.79
744,lebanon,1,US,1570731564,49,40.34,-76.42,73.0,3.36
745,pathein,42,MM,1570731564,83,16.78,94.73,78.94,3.42
746,setermoen,40,NO,1570731564,100,68.86,18.35,28.99,5.82
747,tual,100,ID,1570731565,85,-5.67,132.75,78.04,6.35
748,gorontalo,60,ID,1570731566,86,0.54,123.06,73.36,2.64
749,nicoya,40,CR,1570731566,59,10.15,-85.45,89.6,5.82
750,sidi ali,0,DZ,1570731566,58,36.1,0.42,75.88,5.28
751,ornskoldsvik,90,SE,1570731567,100,63.29,18.72,44.6,6.93
752,billings,75,US,1570731567,68,45.79,-108.5,26.01,4.97
753,padang,65,ID,1570731567,96,-0.92,100.36,66.52,1.73
754,vao,97,EE,1570731568,95,59.1,26.19,42.94,2.51
755,aldergrove,1,CA,1570731569,61,49.06,-122.49,48.99,3.36
756,dukat,100,AL,1570731569,94,40.25,19.57,66.99,1.01
757,tame,94,CO,1570731569,65,6.46,-71.72,85.24,3.52
758,ribeira brava,40,PT,1570731570,60,32.65,-17.07,71.6,14.99
759,dudinka,90,RU,1570731570,58,69.41,86.18,25.66,21.21
760,adre,20,TD,1570731570,43,13.47,22.2,82.72,5.36
761,alta floresta,34,BR,1570731571,44,-9.87,-56.08,90.64,2.3
762,santa helena,76,BR,1570731571,54,-2.23,-45.3,87.4,5.75
763,oktyabrskoye,15,RU,1570731571,50,56.73,85.44,35.01,3.0
764,marrakesh,75,MA,1570731572,39,31.63,-7.99,84.2,5.82
765,dwarka,0,IN,1570731572,61,28.58,77.04,84.99,5.44
766,soldotna,90,US,1570731572,93,60.48,-151.07,42.8,2.81
767,kutum,21,SD,1570731573,31,14.2,24.66,82.9,11.41
768,arys,99,KZ,1570731573,26,42.43,68.8,64.9,6.84
769,sioux lookout,90,CA,1570731573,93,50.1,-91.92,48.2,6.93
770,kamenka,97,MD,1570731574,81,48.03,28.7,52.0,1.42
771,talnakh,73,RU,1570731574,63,69.49,88.39,15.4,12.3
772,mundo nuevo,100,CL,1570731575,82,-32.72,-71.41,71.6,14.99
773,pandan,54,PH,1570731575,74,11.72,122.09,80.74,6.71
774,pala,0,TD,1570731575,73,9.37,14.91,78.22,3.18
775,bakel,0,SN,1570731576,19,14.9,-12.46,98.38,7.72
776,male,82,UA,1570731576,84,50.74,33.7,50.5,7.49
777,kisangani,90,CD,1570731577,100,0.52,25.21,68.0,4.7
778,llanes,0,ES,1570731577,89,43.42,-4.75,64.0,11.34
779,tafresh,0,IR,1570731577,30,34.69,50.01,56.98,11.8
780,palmer,2,AU,1570731578,81,-34.85,139.16,55.99,5.82
781,saquena,83,PE,1570731579,56,-4.67,-73.52,90.28,2.36
782,tubuala,40,PA,1570731580,79,9.52,-79.03,84.2,8.05
783,halifax,90,CA,1570731580,47,44.65,-63.58,60.01,12.75
784,yarega,98,RU,1570731581,86,63.43,53.58,33.58,7.54
785,abu samrah,86,SY,1570731581,38,35.3,37.18,72.64,6.38
786,awjilah,100,LY,1570731581,24,29.14,21.3,86.14,10.44
787,salina,90,US,1570731582,81,38.84,-97.61,48.99,24.16
788,lima,90,PE,1570731582,77,-12.06,-77.04,62.6,4.7
789,bueno brandao,87,BR,1570731582,67,-22.44,-46.35,74.98,4.52
790,muscat,0,OM,1570731583,58,23.6,58.55,87.8,2.24
791,puerto quijarro,40,BO,1570731583,37,-19.0,-57.72,98.6,10.29
792,verkh-chebula,0,RU,1570731584,60,56.03,87.61,29.98,11.82
793,gornopravdinsk,100,RU,1570731584,92,60.06,69.92,43.3,4.75
794,lodwar,7,KE,1570731584,42,3.12,35.6,86.86,20.69
795,ibra,0,OM,1570731585,45,22.69,58.55,84.52,10.17
796,bereda,0,ES,1570731585,81,43.27,-7.54,63.0,1.99
797,pareora,99,NZ,1570731585,97,-44.49,171.21,48.0,8.99
798,auka,90,HN,1570731586,94,14.93,-83.83,80.6,11.41
799,bereznehuvate,60,UA,1570731586,90,47.31,32.85,56.8,8.5
800,watsa,100,CD,1570731587,94,3.04,29.53,65.8,2.41
801,brockville,1,CA,1570731587,55,44.59,-75.69,66.0,10.29
802,sobolevo,98,RU,1570731588,93,54.43,31.9,45.46,10.78
803,kulhudhuffushi,100,MV,1570731588,75,6.62,73.07,82.72,7.58
804,karaton,20,ID,1570731589,74,-6.34,106.1,80.6,2.24
805,sydney,75,AU,1570731590,93,-33.85,151.22,55.99,1.63
806,sur,0,OM,1570731590,54,22.57,59.53,83.08,8.58
807,vostok,100,RU,1570731591,94,46.45,135.83,47.26,3.76
808,kyaikto,100,MM,1570731591,93,17.31,97.01,74.62,1.17
809,saurimo,23,AO,1570731592,67,-9.66,20.4,73.9,2.14
810,pizarro,75,CO,1570731592,83,4.95,-77.37,78.4,10.13
811,lasa,20,CY,1570731592,83,34.92,32.53,77.0,5.82
812,dong hoi,4,VN,1570731593,90,17.48,106.6,73.9,2.7
813,pontecagnano,20,IT,1570731593,77,40.64,14.87,70.0,3.36
814,xining,100,CN,1570731594,64,36.62,101.77,42.94,0.59
815,bitung,40,ID,1570731594,94,1.44,125.19,75.2,2.24
816,reconquista,0,AR,1570731595,34,-29.14,-59.64,92.98,11.92
817,tromso,20,NO,1570731595,93,69.65,18.96,35.6,6.93
818,giyani,100,ZA,1570731595,69,-23.32,30.73,61.66,18.29
819,maltahohe,0,NA,1570731596,15,-24.83,16.98,69.4,14.26
820,karwar,100,IN,1570731596,81,14.8,74.13,80.92,2.98
821,kaspiyskiy,0,RU,1570731597,64,45.39,47.37,56.08,14.86
822,dongying,100,CN,1570731597,85,37.43,118.67,62.38,5.11
823,mnogovershinnyy,60,RU,1570731597,81,53.94,139.92,31.96,6.4
824,novobureyskiy,50,RU,1570731598,72,49.8,129.88,33.4,4.32
825,petropavlovsk-kamchatskiy,20,RU,1570731598,81,53.05,158.65,42.8,4.47
826,redcliffe,12,AU,1570731599,93,-31.94,115.94,60.01,4.7
827,leninskoye,0,RU,1570731599,66,54.82,82.85,35.38,8.55
828,nizhnyaya omka,100,RU,1570731600,50,55.43,74.94,48.52,13.07
829,kudahuvadhoo,100,MV,1570731600,73,2.67,72.89,82.72,7.53
830,iskateley,76,RU,1570731600,90,67.68,53.15,33.22,10.28
831,limbang,75,BN,1570731601,88,4.75,115.01,77.0,3.36
832,traverse city,1,US,1570731601,43,44.76,-85.62,71.6,10.29
833,balikpapan,57,ID,1570731602,97,-1.24,116.86,74.08,2.59
834,kuroiso,64,JP,1570731602,64,36.97,140.05,70.0,3.07
835,kuito,35,AO,1570731602,76,-12.38,16.94,64.9,8.17
836,tyup,0,KG,1570731603,36,42.73,78.36,42.94,4.17
837,bartica,40,GY,1570731603,70,6.41,-58.62,86.0,13.87
838,kedrovyy,0,RU,1570731604,61,56.17,91.82,24.76,9.34
839,huambo,74,AO,1570731604,84,-12.78,15.73,63.46,7.86
840,sannat,90,FR,1570731605,59,46.12,2.41,62.6,6.93
841,ponte nova,99,BR,1570731605,56,-20.42,-42.91,80.38,8.41
842,zharkent,0,KZ,1570731606,51,44.17,80.0,58.6,8.12
843,marand,0,IR,1570731606,37,38.43,45.77,66.2,4.7
844,miles city,90,US,1570731606,79,46.41,-105.84,28.99,20.8
845,obo,100,CF,1570731607,97,5.39,26.49,69.94,4.74
846,spruce grove,1,CA,1570731607,47,53.55,-113.9,39.0,9.17
847,jalpa,40,MX,1570731608,38,21.63,-102.98,75.2,4.7
848,dhaka,13,IN,1570731608,76,26.67,85.17,78.04,2.68
849,micheweni,100,TZ,1570731609,86,-4.97,39.83,80.02,11.86
850,surt,35,LY,1570731609,63,31.21,16.59,74.08,9.9
851,teya,75,MX,1570731609,63,21.05,-89.07,93.99,11.41
852,trelew,100,AR,1570731610,31,-43.25,-65.31,68.86,28.5
853,ada,90,US,1570731610,88,34.77,-96.68,82.99,6.93
854,tarko-sale,100,RU,1570731611,74,64.92,77.78,37.99,24.74
855,dosso,37,NE,1570731611,68,13.05,3.19,80.92,17.22
856,jacareacanga,20,BR,1570731612,62,-6.22,-57.76,89.6,4.7
857,shahr-e kord,0,IR,1570731612,30,32.33,50.85,55.4,9.17
858,maputo,75,MZ,1570731613,77,-25.97,32.57,64.4,20.8
859,caohai,100,CN,1570731613,98,26.87,104.28,50.5,5.3
860,aginskoye,24,RU,1570731614,63,51.11,114.54,18.1,9.68
861,shimoda,100,JP,1570731614,94,34.7,138.93,70.0,1.01
862,ahuimanu,75,US,1570731614,83,21.44,-157.84,84.2,5.05
863,sept-iles,20,CA,1570731615,50,50.2,-66.38,55.4,8.05
864,say,75,NE,1570731615,58,13.1,2.36,86.0,12.75
865,barbastro,0,ES,1570731616,58,42.04,0.13,68.0,2.53
866,itoman,40,JP,1570731616,69,26.12,127.67,77.0,17.22
867,ponneri,20,IN,1570731617,79,13.34,80.19,84.99,4.7
868,boende,90,CD,1570731617,95,-0.28,20.88,73.9,2.6
869,culaman,92,PH,1570731617,95,5.96,125.66,67.42,2.08
870,podgorenskiy,93,RU,1570731618,47,50.4,39.64,52.12,11.69
871,oranjemund,52,ZA,1570731618,53,-28.55,16.43,60.94,20.41
872,qarqin,81,AF,1570731619,18,37.41,66.03,69.22,10.61
873,caridad,75,HN,1570731620,54,13.83,-87.69,84.2,4.73
874,baneh,0,IR,1570731621,62,35.99,45.88,50.86,2.12
875,asosa,100,ET,1570731621,95,10.07,34.53,65.98,0.82
876,marovoay,36,MG,1570731622,78,-16.11,46.64,78.8,2.24
877,kenai,90,US,1570731622,87,60.55,-151.26,42.8,1.86
878,ialibu,100,PG,1570731623,96,-6.28,143.99,58.42,0.85
879,oriximina,20,BR,1570731623,44,-1.77,-55.87,94.24,4.0
880,grindavik,75,IS,1570731625,75,63.84,-22.43,42.8,21.92
881,bucerias,40,MX,1570731625,70,20.76,-105.33,89.01,9.17
882,greymouth,99,NZ,1570731625,86,-42.45,171.21,53.2,13.85
883,tera,20,CY,1570731626,83,34.97,32.42,77.0,5.82
884,hobyo,0,SO,1570731626,74,5.35,48.53,80.74,11.41
885,shellbrook,20,CA,1570731627,59,53.22,-106.39,33.8,6.93
886,cap-aux-meules,20,CA,1570731627,76,47.38,-61.86,51.8,10.29
887,gardez,0,AF,1570731627,50,33.6,69.22,52.48,3.4
888,sibu,75,MY,1570731628,94,2.29,111.83,75.2,2.24
889,chake chake,86,TZ,1570731628,87,-5.25,39.77,79.84,12.49
890,nampula,79,MZ,1570731628,60,-15.12,39.26,78.04,8.02
891,axim,100,GH,1570731630,85,4.87,-2.24,77.14,6.42
892,davila,20,PH,1570731630,94,18.47,120.58,71.6,5.82
893,guane,40,CU,1570731631,72,22.2,-84.09,84.34,6.28
894,yantal,90,RU,1570731631,83,56.85,105.25,19.18,2.75
895,teluknaga,20,ID,1570731632,74,-6.1,106.64,80.6,2.24
896,vallenar,74,CL,1570731632,57,-28.58,-70.76,62.92,11.66
897,winnemucca,1,US,1570731632,43,40.97,-117.74,39.99,5.82
898,nhulunbuy,75,AU,1570731633,94,-12.18,136.78,69.8,7.17
899,jiayuguan,100,CN,1570731633,32,39.77,98.29,57.7,7.76
900,nantucket,90,US,1570731634,87,41.28,-70.1,55.4,18.34
901,bismarck,90,US,1570731634,86,46.81,-100.78,30.2,19.46
902,portales,1,US,1570731634,50,34.19,-103.33,57.2,14.99
903,birjand,0,IR,1570731635,36,32.86,59.22,64.4,9.17
904,idaho falls,1,US,1570731635,42,43.49,-112.04,30.0,6.29
905,la rioja,34,AR,1570731636,26,-29.41,-66.86,84.34,8.96
906,edd,28,ER,1570731636,41,13.93,41.69,90.1,8.72
907,grand-lahou,7,CI,1570731637,88,5.24,-5.0,78.4,17.73
908,bambanglipuro,85,ID,1570731637,90,-7.95,110.28,73.9,5.04
909,garoua,20,CM,1570731637,83,9.31,13.39,78.8,1.12
910,novikovo,100,RU,1570731638,67,51.15,37.89,54.1,12.75
911,timizart,1,DZ,1570731638,72,36.8,4.25,73.0,18.75
912,trzcianka,71,PL,1570731638,85,53.04,16.46,48.34,7.05
913,troitsko-pechorsk,97,RU,1570731639,91,62.71,56.19,33.76,5.11
914,diofior,40,SN,1570731639,79,14.19,-16.66,93.2,10.29
915,isla vista,1,US,1570731639,64,34.41,-119.86,73.99,4.7
916,vuktyl,97,RU,1570731640,82,63.86,57.31,33.76,5.4
917,swellendam,31,ZA,1570731641,67,-34.02,20.44,57.2,8.05
918,swarzedz,13,PL,1570731641,93,52.41,17.09,48.99,5.82
919,mus,0,FR,1570731642,48,43.74,4.2,68.0,8.05
920,bissau,69,GW,1570731642,75,11.86,-15.58,83.08,8.16
921,san jose,20,HN,1570731642,58,14.25,-87.96,84.2,6.93
922,springdale,90,US,1570731643,94,36.19,-94.13,75.99,12.75
923,menzelinsk,98,RU,1570731643,88,55.73,53.11,41.68,9.02
924,zhurivka,99,UA,1570731643,66,50.5,31.77,53.6,6.71
925,verkhniy uslon,97,RU,1570731644,81,55.77,48.98,46.4,8.95
926,amahai,100,ID,1570731644,85,-3.31,129.0,79.12,7.1
927,bagn,100,NO,1570731644,96,60.82,9.55,36.0,3.42
928,zhongshu,0,CN,1570731645,95,24.52,103.77,57.52,2.77
929,tangzhai,99,CN,1570731645,94,26.73,109.0,66.7,3.01
930,sorland,98,NO,1570731646,59,67.67,12.69,44.38,10.51
931,jalor,0,IN,1570731646,30,25.35,72.62,83.08,3.57
932,kaduy,100,RU,1570731646,97,59.2,37.15,42.4,5.11
933,arica,40,CL,1570731647,55,-18.48,-70.32,68.0,12.75
934,tarpon springs,90,US,1570731647,62,28.15,-82.76,89.01,8.05
935,takoradi,49,GH,1570731647,87,4.89,-1.75,78.22,14.65
936,ocotal,12,NI,1570731648,62,13.63,-86.48,82.54,6.07
937,novelda,40,ES,1570731648,73,38.38,-0.77,75.2,9.17
938,monopoli,1,IT,1570731649,69,40.95,17.3,73.99,6.93
939,bakchar,83,RU,1570731649,65,57.02,82.07,33.04,7.89
940,acevedo,47,CO,1570731650,76,1.81,-75.89,70.48,5.02
941,truth or consequences,1,US,1570731650,22,33.13,-107.25,78.01,11.41
942,pangody,100,RU,1570731650,91,65.85,74.49,44.02,18.34
943,kuhdasht,0,IR,1570731651,22,33.53,47.61,69.8,6.93
944,batemans bay,100,AU,1570731651,95,-35.71,150.18,52.0,5.01
945,iquique,75,CL,1570731651,68,-20.22,-70.14,64.4,11.41
946,walvis bay,8,NA,1570731652,72,-22.95,14.51,63.0,6.93
947,aksarka,100,RU,1570731652,85,66.56,67.8,37.0,19.83
948,hoa binh,0,VN,1570731653,88,20.81,105.34,78.8,6.93
949,orlik,20,PL,1570731653,87,53.95,17.74,48.2,10.29
950,buritizeiro,78,BR,1570731654,31,-17.37,-44.96,91.36,7.01
951,rovaniemi,90,FI,1570731654,100,66.5,25.72,33.8,2.24
952,orzhytsya,77,UA,1570731654,77,49.79,32.7,52.48,7.48
953,barra patuca,100,HN,1570731655,77,15.8,-84.28,81.82,1.33
954,tomohon,40,ID,1570731655,94,1.33,124.84,75.2,2.24
955,huntsville,90,US,1570731655,57,34.73,-86.59,80.01,9.17
956,nkoteng,43,CM,1570731656,92,4.5,12.12,71.56,2.42
957,xiaoshi,68,CN,1570731656,80,30.59,116.63,66.16,6.74
958,sidney,40,US,1570731657,53,40.28,-84.16,81.0,5.82
959,faya,40,SA,1570731657,29,18.39,42.45,69.8,11.41
960,bani,33,YE,1570731657,66,16.02,42.93,86.5,3.37
961,jingdezhen,52,CN,1570731658,74,29.29,117.2,72.1,2.83
962,chihuahua,5,MX,1570731658,39,28.66,-106.08,78.8,12.75
963,payo,67,ID,1570731658,76,-3.75,103.64,68.32,3.28
964,santo antonio do ica,97,BR,1570731659,56,-3.1,-67.94,87.76,1.34
965,alexandria,52,RO,1570731659,67,43.97,25.33,60.01,1.01
966,aranda de duero,0,ES,1570731659,49,41.67,-3.69,62.02,2.51
967,stabat,63,ID,1570731660,69,3.76,98.46,79.0,4.18
968,arrah,20,IN,1570731660,88,25.56,84.66,78.8,2.89
969,fort wellington,87,GY,1570731661,77,6.4,-57.6,81.46,11.42
970,manakara,7,MG,1570731661,89,-22.14,48.01,70.84,6.5
971,praia da vitoria,20,PT,1570731662,60,38.73,-27.07,73.4,15.01
972,sandakan,75,MY,1570731663,88,5.84,118.12,77.0,2.24
973,mildura,0,AU,1570731664,65,-34.18,142.16,46.4,5.82
974,birao,16,CF,1570731664,59,10.3,22.78,80.56,2.09
975,hearst,17,CA,1570731664,54,49.69,-83.67,61.84,8.82
976,biella,80,IT,1570731665,72,45.57,8.05,66.2,4.7
977,bahia blanca,83,AR,1570731665,25,-38.72,-62.27,79.3,14.4
978,tairua,100,NZ,1570731666,97,-37.02,175.85,61.0,23.59
979,port hedland,5,AU,1570731666,77,-20.31,118.58,69.8,5.82
980,asahikawa,100,JP,1570731668,73,43.76,142.37,48.7,3.65
981,windsor,1,US,1570731668,52,42.3,-83.03,72.0,11.41
982,boden,90,SE,1570731668,97,65.83,21.69,33.8,3.36
983,inta,96,RU,1570731669,94,66.04,60.13,30.88,10.06
984,ukiah,1,US,1570731669,21,39.15,-123.21,69.01,3.36
985,abu zabad,12,SD,1570731670,50,12.35,29.25,84.52,7.52
986,post falls,1,US,1570731670,64,47.71,-116.95,41.0,2.23
987,auki,82,NG,1570731670,79,12.18,6.51,78.04,3.81
988,buenos aires,75,AR,1570731671,64,-34.61,-58.44,79.0,4.7
989,nichinan,87,JP,1570731671,93,31.65,131.31,62.01,4.0
990,soyo,82,AO,1570731672,83,-6.13,12.37,77.5,9.79
991,wairoa,100,NZ,1570731673,65,-39.04,177.43,62.01,3.0
992,verkhnyaya inta,100,RU,1570731673,93,65.99,60.32,31.24,8.8
993,olga,1,US,1570731674,49,34.11,-118.17,77.0,2.98
994,amparafaravola,20,MG,1570731674,86,-17.68,48.22,63.28,10.89
995,ruteng,48,ID,1570731675,56,-8.61,120.46,67.06,3.91
996,pershotravneve,60,UA,1570731676,87,51.38,28.88,48.88,7.68
997,huanren,59,CN,1570731677,88,41.26,125.37,44.02,5.98
998,tabuk,17,PH,1570731677,91,17.41,121.44,69.22,3.2
999,kiunga,100,PG,1570731677,100,-6.12,141.3,72.46,2.15
1000,atikokan,100,CA,1570731678,89,48.76,-91.62,53.38,7.12
1001,novo aripuana,100,BR,1570731679,44,-5.12,-60.38,92.98,3.53
1002,krasnyy chikoy,0,RU,1570731679,72,50.36,108.75,15.04,2.78
1003,manjacaze,98,MZ,1570731680,81,-24.71,33.88,69.4,16.75
1004,hovd,0,NO,1570731680,93,63.83,10.7,46.0,9.17
1005,butte,1,US,1570731681,53,46.01,-112.54,27.0,6.93
1006,peniche,0,PT,1570731681,39,39.36,-9.38,78.8,6.93
1007,pontiac,1,US,1570731682,60,42.64,-83.29,73.0,9.17
1008,danilovka,79,RU,1570731683,47,50.35,44.12,50.5,11.49
1009,uruzgan,0,AF,1570731684,47,32.93,66.63,41.14,0.32
1010,xai-xai,100,MZ,1570731684,81,-25.04,33.64,67.78,14.37
1011,aleksandrovskiy zavod,95,RU,1570731685,66,50.92,117.94,17.38,3.96
1012,dedougou,100,BF,1570731686,41,12.47,-3.47,89.92,6.81
1013,zalantun,0,CN,1570731686,44,48.0,122.72,28.36,6.39
1014,corrente,64,BR,1570731687,33,-17.45,-44.68,87.76,7.41
1015,rio do sul,0,BR,1570731687,44,-27.22,-49.64,86.0,1.01
1016,gazli,0,UZ,1570731688,55,40.13,63.45,62.2,18.03
1017,tynda,100,RU,1570731688,52,55.15,124.74,21.16,9.79
1018,capreol,5,CA,1570731688,44,46.71,-80.92,64.0,10.29
1019,eckernforde,20,DE,1570731689,87,54.47,9.83,53.6,9.17
1020,dabakala,37,CI,1570731689,87,8.36,-4.43,77.32,4.79
1021,santiago del estero,0,AR,1570731690,19,-27.8,-64.26,100.9,22.92
1022,xinzhi,75,TW,1570731690,78,22.54,120.62,80.6,5.82
1023,masuri,90,KR,1570731690,76,35.85,128.15,59.0,1.12
1024,laguna de perlas,72,NI,1570731691,77,12.34,-83.67,84.16,15.66
1025,custoias,0,PT,1570731691,46,41.11,-7.32,62.92,3.38
1026,aljezur,0,PT,1570731692,70,37.31,-8.8,73.99,6.58
1027,kemise,100,ET,1570731692,60,10.72,39.87,69.58,4.95
1028,cimarron hills,90,US,1570731692,79,38.86,-104.7,23.0,18.34
1029,mezen,100,RU,1570731693,96,65.85,44.24,33.76,11.4
1030,banjar,93,ID,1570731693,91,-7.37,108.54,71.38,0.65
1031,esmeralda,100,CL,1570731694,31,-34.33,-70.9,77.0,1.12
1032,ondangwa,50,NA,1570731694,25,-17.91,15.98,87.8,17.22
1033,voyinka,79,UA,1570731695,83,45.87,33.99,59.32,8.03
1034,chernyy yar,100,RU,1570731695,97,64.44,40.96,33.76,6.89
1035,gaborone,33,BW,1570731696,9,-24.66,25.91,87.8,9.17
1036,ramnagar,0,IN,1570731696,83,27.17,84.33,74.98,1.66
1037,puerto del rosario,40,ES,1570731696,83,28.5,-13.86,73.4,5.82
1038,sabang,0,PH,1570731697,94,13.8,121.11,71.02,1.72
1039,sarkand,0,KZ,1570731697,37,45.41,79.91,56.62,4.93
1040,shar,48,NG,1570731698,85,7.3,8.73,77.5,1.63
1041,monrovia,75,LR,1570731698,78,6.33,-10.8,82.4,13.87
1042,clifton,75,US,1570731698,35,40.86,-74.16,71.01,8.05
1043,kangaatsiaq,29,GL,1570731699,62,68.31,-53.46,32.68,12.01
1044,mehran,0,IR,1570731699,25,33.12,46.17,73.4,4.7
1045,ekhabi,83,RU,1570731700,87,53.51,142.97,44.92,12.74
1046,amilly,38,FR,1570731700,71,47.98,2.77,61.0,4.7
1047,ponot,100,PH,1570731701,84,8.45,123.02,78.76,5.39
1048,manali,8,IN,1570731701,68,32.25,77.19,47.44,3.95
1049,bulgan,96,MN,1570731701,80,48.81,103.53,17.74,4.82
1050,gornyak,7,KZ,1570731702,46,51.0,81.46,50.86,5.69
1051,muroto,24,JP,1570731703,80,33.37,134.14,70.12,6.72
1052,morro bay,1,US,1570731703,18,35.37,-120.85,73.99,4.7
1053,rio gallegos,40,AR,1570731703,59,-51.62,-69.22,37.4,34.45
1054,whyalla,89,AU,1570731704,87,-33.04,137.58,55.4,13.87
1055,ust-kuyga,32,RU,1570731704,94,70.0,135.55,0.46,3.32
1056,tilichiki,100,RU,1570731705,74,60.47,166.1,28.36,11.67
1057,krasnofarfornyy,100,RU,1570731705,99,59.14,31.85,43.66,2.41
1058,lahore,0,PK,1570731705,88,31.52,74.33,78.8,3.37
1059,galle,93,GN,1570731706,87,10.08,-12.83,77.68,5.24
1060,manta,97,RO,1570731706,71,45.1,24.1,58.06,0.3
1061,ugoofaaru,100,MV,1570731707,73,5.67,73.0,82.72,8.47
1062,nikopol,91,UA,1570731707,77,47.57,34.39,60.4,9.79
1063,bjornevatn,75,NO,1570731708,93,69.67,29.98,35.6,4.7
1064,chauk,95,MM,1570731708,77,20.89,94.82,77.68,2.04
1065,parana,40,BR,1570731709,62,-7.52,-72.89,89.6,2.24
1066,chadiza,90,ZM,1570731710,39,-14.06,32.43,81.46,8.97
1067,nuuk,20,GL,1570731710,60,64.17,-51.74,39.2,8.05
1068,banff,0,CA,1570731710,65,51.18,-115.57,28.99,1.99
1069,koksovyy,2,RU,1570731711,60,48.2,40.6,53.38,8.88
1070,ulaangom,16,MN,1570731711,72,49.98,92.07,38.62,1.92
1071,wakkanai,100,JP,1570731713,76,45.41,141.67,63.64,24.3
1072,ajaccio,5,FR,1570731713,67,41.93,8.74,69.8,3.36
1073,kita,75,JP,1570731714,88,35.76,139.74,64.99,16.11
1074,aquiraz,39,BR,1570731714,62,-3.9,-38.39,84.2,17.22
1075,kaeo,100,NZ,1570731715,100,-35.1,173.78,59.0,7.05
1076,rosetta,40,EG,1570731715,69,31.4,30.42,77.0,9.17
1077,ati,24,TD,1570731716,44,13.21,18.34,89.2,6.21
1078,katobu,73,ID,1570731716,92,-4.94,122.53,69.04,2.71
1079,puerto ayacucho,40,CO,1570731716,70,5.66,-67.63,86.0,3.08
1080,ambilobe,75,MG,1570731717,59,-13.19,49.05,78.76,16.17
1081,aransas pass,40,US,1570731717,63,27.91,-97.15,91.4,18.34
1082,awbari,0,LY,1570731718,32,26.59,12.77,77.68,8.91
1083,svetlaya,100,RU,1570731718,75,46.54,138.33,56.26,11.38
1084,barinas,60,VE,1570731719,70,8.64,-70.23,83.98,6.4
1085,terney,100,RU,1570731719,75,45.05,136.61,50.5,3.84
1086,saryozek,4,KZ,1570731720,52,44.36,77.98,55.72,4.63
1087,ambon,90,FR,1570731720,87,47.55,-2.56,62.01,3.36
1088,itaguai,90,BR,1570731721,78,-22.85,-43.78,75.2,9.17
1089,praya,40,ID,1570731721,88,-8.71,116.27,75.2,1.96
1090,ilebo,96,CD,1570731722,91,-4.33,20.59,73.54,1.99
1091,sutton,90,US,1570731722,86,40.61,-97.86,39.99,21.92
1092,lielvarde,20,LV,1570731723,100,56.72,24.81,48.2,4.7
1093,balingasay,16,PH,1570731723,69,16.36,119.86,82.54,2.85
1094,muzaffarabad,0,PK,1570731723,57,34.37,73.47,51.94,6.41
1095,liwale,99,TZ,1570731724,76,-9.8,37.92,74.62,5.61
1096,bantogon,100,PH,1570731724,78,6.53,124.03,78.04,5.14
1097,freeport,40,BS,1570731725,79,26.54,-78.7,84.2,9.17
1098,starokozache,72,UA,1570731725,93,46.34,29.99,60.8,5.66
1099,qaqortoq,20,GL,1570731726,52,60.72,-46.03,41.0,3.36
1100,kasongo-lunda,99,CD,1570731726,89,-6.48,16.82,71.02,1.45
1101,chicama,20,PE,1570731727,77,-7.84,-79.15,64.4,11.41
1102,narasannapeta,99,IN,1570731727,89,18.42,84.04,76.06,1.19
1103,atbasar,100,KZ,1570731728,67,51.81,68.36,52.84,8.02
1104,sheopur,0,IN,1570731728,53,25.67,76.7,75.88,6.09
1105,denpasar,75,ID,1570731728,94,-8.65,115.22,78.8,6.93
1106,christchurch,69,NZ,1570731729,93,-43.53,172.64,51.01,3.36
1107,mastic beach,90,US,1570731730,54,40.77,-72.85,69.01,10.29
1108,kings mountain,40,US,1570731730,56,35.25,-81.34,77.0,3.36
1109,wuwei,66,CN,1570731731,56,37.93,102.64,55.0,2.85
1110,mumford,87,GH,1570731732,92,5.26,-0.76,76.06,6.85
1111,narasaraopet,100,IN,1570731732,92,16.24,80.05,77.32,3.24
1112,batan,67,ID,1570731732,93,-7.54,110.71,67.24,2.79
1113,borovskoy,100,KZ,1570731733,80,53.8,64.15,41.68,15.26
1114,aykhal,98,RU,1570731733,99,65.95,111.51,4.06,10.73
1115,takab,0,IR,1570731734,50,36.4,47.11,53.38,6.53
1116,uvira,41,CD,1570731734,86,-3.41,29.14,55.0,1.94
1117,erfurt,7,DE,1570731735,76,50.98,11.03,51.01,12.75
1118,maua,64,KE,1570731735,72,0.23,37.94,76.24,3.83
1119,constantine,20,DZ,1570731736,72,36.36,6.61,66.2,8.05
1120,sarakhs,3,TM,1570731736,56,36.54,61.16,68.0,2.24
1121,singkang,75,MY,1570731736,88,2.1,102.8,78.8,1.12
1122,ozernovskiy,85,RU,1570731737,98,51.5,156.52,42.58,4.97
1123,bacabal,61,BR,1570731737,22,-4.23,-44.78,100.54,5.97
1124,casablanca,79,MA,1570731738,83,33.6,-7.62,73.4,5.82
1125,amposta,90,ES,1570731738,77,40.71,0.58,68.0,3.36
1126,itaquyry,0,PY,1570731738,29,-24.93,-55.22,92.98,7.84
1127,rehoboth,1,NA,1570731739,14,-23.31,17.08,74.08,16.52
1128,san policarpo,84,PH,1570731739,93,12.18,125.51,76.24,6.17
1129,sistranda,15,NO,1570731740,81,63.73,8.83,46.0,8.05
1130,key largo,20,US,1570731740,59,25.09,-80.45,90.0,9.17
1131,houston,1,US,1570731740,40,29.76,-95.37,93.0,5.82
1132,oyek,0,RU,1570731741,68,52.59,104.46,26.6,2.24
1133,erenhot,0,CN,1570731741,51,43.65,111.97,47.26,4.99
1134,panalingaan,35,PH,1570731742,77,8.78,117.42,80.74,4.43
1135,baghdad,0,IQ,1570731743,39,33.3,44.38,84.2,5.82
1136,beecher,40,US,1570731743,77,41.34,-87.62,71.01,5.82
1137,lugovoy,100,RU,1570731744,87,59.72,65.88,38.62,4.78
1138,manica,75,MZ,1570731744,94,-18.94,32.88,68.0,12.73
1139,grants pass,1,US,1570731745,43,42.44,-123.33,57.0,3.36
1140,marawi,100,PH,1570731746,94,8.0,124.29,73.99,5.99
1141,ariquemes,100,BR,1570731746,72,-9.91,-63.03,83.08,4.04
1142,ampanihy,7,MG,1570731747,36,-24.69,44.75,79.66,6.19
1143,inuvik,40,CA,1570731747,86,68.36,-133.71,32.0,3.36
1144,sinnamary,44,GF,1570731748,73,5.38,-52.96,82.18,21.42
1145,lazaro cardenas,5,MX,1570731748,39,28.39,-105.62,78.8,12.75
1146,cocula,75,MX,1570731749,57,20.37,-103.82,84.99,3.36
1147,palmerston,95,AU,1570731749,78,-12.49,130.99,79.0,4.7
1148,porto novo,20,BR,1570731749,54,-23.68,-45.44,80.6,8.05
1149,vierzon,75,FR,1570731750,87,47.22,2.07,61.0,5.82
1150,dzhebariki-khaya,100,RU,1570731751,94,62.22,135.8,26.74,5.02
1151,port keats,96,AU,1570731751,81,-14.25,129.55,76.42,5.13
1152,moba,22,CD,1570731752,70,-7.04,29.77,79.66,5.41
1153,arrifes,20,PT,1570731752,60,37.77,-25.7,71.6,6.93
1154,colares,0,PT,1570731753,44,38.8,-9.45,78.8,8.05
1155,tocopilla,0,CL,1570731753,10,-22.09,-70.2,77.32,11.05
1156,mporokoso,63,ZM,1570731753,39,-9.37,30.12,74.98,2.81
1157,ulladulla,90,AU,1570731754,87,-35.36,150.48,53.6,4.7
1158,peterhead,0,AU,1570731754,81,-34.83,138.5,55.99,5.82
1159,kovernino,100,RU,1570731755,93,57.13,43.81,41.68,8.46
1160,ovsyanka,15,RU,1570731755,57,53.58,126.91,24.4,8.3
1161,whittlesea,90,AU,1570731756,87,-37.51,145.12,51.01,9.17
1162,salym,100,RU,1570731756,89,60.06,71.48,45.64,7.1
1163,martapura,13,ID,1570731757,93,-3.41,114.85,73.72,2.68
1164,maldonado,47,UY,1570731757,42,-34.91,-54.96,84.2,11.41
1165,cienfuegos,20,CU,1570731758,63,22.15,-80.44,91.4,1.12
1166,montrose,75,GB,1570731761,100,56.71,-2.47,50.0,6.93
1167,semnan,0,IR,1570731762,25,35.58,53.39,73.4,5.78
1168,gambo,77,CF,1570731762,96,4.65,22.26,71.38,1.14
1169,hohhot,2,CN,1570731763,36,40.81,111.65,41.0,8.95
1170,wynyard,89,AU,1570731763,94,-40.99,145.73,48.0,5.01
1171,shahreza,0,IR,1570731764,18,32.01,51.87,59.5,5.86
1172,suba,99,CN,1570731764,80,28.73,103.51,50.68,2.75
1173,ratne,19,UA,1570731764,86,51.67,24.52,47.8,10.16
1174,terme,40,TR,1570731765,88,41.21,36.97,64.4,2.14
1175,rundu,100,NA,1570731766,36,-17.91,19.77,80.6,6.93
1176,elkton,20,US,1570731766,43,39.61,-75.83,75.2,11.41
1177,urucara,12,BR,1570731767,35,-2.54,-57.76,97.12,5.14
1178,chiredzi,68,ZW,1570731767,66,-21.05,31.67,71.74,17.64
1179,wlodawa,75,PL,1570731767,93,51.55,23.55,50.0,11.41
1180,armidale,43,AU,1570731768,63,-30.51,151.67,45.0,4.0
1181,kahama,100,TZ,1570731768,44,-3.83,32.6,78.04,5.19
1182,phan thiet,42,VN,1570731769,95,10.93,108.1,72.82,2.38
1183,tulum,75,MX,1570731769,70,20.21,-87.46,87.8,13.87
1184,pinsk,33,BY,1570731769,86,52.11,26.1,48.16,8.9
1185,furstenwalde,13,DE,1570731770,81,52.37,14.07,53.01,11.41
1186,barcelona,75,ES,1570731770,68,41.38,2.18,71.01,6.93
1187,araxa,90,BR,1570731771,61,-19.59,-46.94,77.0,3.36
1188,kanniyakumari,70,IN,1570731771,80,8.08,77.57,81.82,9.02
1189,trapani,20,IT,1570731772,83,38.02,12.54,72.0,8.05
1190,palu,79,ID,1570731772,98,-0.9,119.87,65.8,2.32
1191,danielskuil,1,ZA,1570731773,15,-28.19,23.54,59.86,10.75
1192,tokur,33,RU,1570731773,89,53.13,132.9,21.16,3.29
1193,along,74,IN,1570731773,97,28.17,94.8,63.28,2.18
1194,longfeng,40,CN,1570731774,88,31.05,103.87,70.0,3.9
1195,chipinge,81,ZW,1570731774,79,-20.19,32.62,69.22,18.38
1196,san rafael,90,AR,1570731775,23,-34.61,-68.33,81.1,7.54
1197,honningsvag,75,NO,1570731775,86,70.98,25.97,37.4,9.17
1198,zhangjiakou,0,CN,1570731776,50,40.77,114.88,47.44,1.67
1199,manicore,96,BR,1570731776,43,-5.81,-61.3,92.98,3.7
1200,colac,89,AU,1570731777,95,-38.34,143.59,46.99,3.25
1201,fare,100,PF,1570731777,79,-16.7,-151.02,76.06,16.14
1202,ust-omchug,89,RU,1570731777,93,61.13,149.63,16.66,3.82
1203,shunyi,96,CN,1570731778,100,40.13,116.65,69.01,2.24
1204,cape coast,6,GH,1570731778,86,5.11,-1.24,79.3,17.28
1205,decatur,75,US,1570731779,47,35.51,-84.79,81.0,4.7
1206,aparecida do taboado,83,BR,1570731779,41,-20.08,-51.1,90.82,11.82
1207,havelock,90,US,1570731779,72,34.88,-76.9,66.99,14.99
1208,mamlyutka,100,KZ,1570731780,97,54.94,68.54,50.14,3.32
1209,suntar,100,RU,1570731780,92,62.16,117.65,20.62,9.5
1210,singapore,75,MY,1570731780,83,1.29,103.85,82.4,1.12
1211,port augusta,78,AU,1570731781,87,-32.49,137.76,55.4,13.87
1212,greensburg,90,US,1570731782,58,30.83,-90.67,90.0,11.41
1213,talara,11,PE,1570731783,290,-4.58,-81.27,62.6,13.87
1214,seoul,1,KR,1570731783,100,37.57,126.98,57.2,2.24
1215,nelson,0,CA,1570731784,27,49.49,-117.29,37.72,0.89
1216,pitimbu,75,BR,1570731784,69,-7.47,-34.81,82.4,18.34
1217,yenagoa,93,NG,1570731784,90,4.92,6.26,77.5,5.35
1218,canete,38,IT,1570731785,69,46.33,9.49,55.99,9.17
1219,tadine,13,NC,1570731785,89,-21.55,167.88,68.14,4.32
1220,west wendover,1,US,1570731786,44,40.74,-114.07,37.4,3.36
1221,innoshima,4,JP,1570731786,72,34.28,133.18,68.0,1.99
1222,sri aman,100,MY,1570731786,94,1.24,111.46,75.2,1.32
1223,laishevo,97,RU,1570731787,81,55.4,49.55,46.4,8.95
1224,saint-louis,100,SN,1570731788,66,16.03,-16.5,87.8,9.17
1225,kupang,25,ID,1570731788,70,-10.16,123.6,76.78,7.83
1226,atasu,100,KZ,1570731789,29,48.68,71.64,61.3,8.73
1227,lumeje,100,AO,1570731789,77,-11.56,20.78,70.3,5.07
1228,santa rosalia,20,IT,1570731789,83,38.07,13.27,72.0,8.05
1229,twin falls,90,US,1570731790,55,42.57,-114.46,39.99,8.97
1230,luganville,94,VU,1570731790,96,-15.51,167.18,71.56,1.55
1231,murray bridge,0,AU,1570731791,95,-35.12,139.28,55.99,4.31
1232,iracoubo,44,GF,1570731791,73,5.48,-53.21,82.18,21.42
1233,flinders,90,AU,1570731791,87,-34.58,150.85,55.0,4.7
1234,ejutla de crespo,75,MX,1570731792,50,16.57,-96.73,77.0,4.7
1235,campbell river,20,CA,1570731792,65,50.02,-125.24,46.4,2.57
1236,talcahuano,83,CL,1570731793,52,-36.72,-73.12,68.0,9.17
1237,omboue,100,GA,1570731793,97,-1.57,9.26,73.72,5.29
1238,bundaberg,40,AU,1570731793,87,-24.87,152.35,61.0,8.05
1239,lucapa,28,AO,1570731794,67,-8.42,20.74,74.62,1.62
1240,ola,93,RU,1570731794,84,59.58,151.3,34.66,20.54
1241,fort-shevchenko,2,KZ,1570731794,28,44.51,50.26,55.9,12.68
1242,djambala,99,CG,1570731795,70,-2.55,14.76,76.42,2.43
1243,ulaanbaatar,40,MN,1570731796,73,47.92,106.92,21.2,4.47
1244,plastun,100,RU,1570731796,75,44.76,136.29,50.5,3.84
1245,churapcha,100,RU,1570731796,94,62.0,132.43,22.06,10.51
1246,misratah,0,LY,1570731797,72,32.38,15.09,75.34,14.21
1247,malazgirt,0,TR,1570731797,30,39.15,42.54,52.12,4.47
1248,homer,75,US,1570731797,100,59.64,-151.54,44.01,8.47
1249,ekibastuz,95,KZ,1570731798,41,51.72,75.32,58.42,11.92
1250,pali,0,IN,1570731798,32,25.77,73.33,80.74,6.48
1251,ometepec,98,MX,1570731799,55,16.69,-98.42,91.0,2.89
1252,el estor,99,GT,1570731799,65,15.53,-89.34,85.06,2.83
1253,masvingo,83,ZW,1570731799,77,-20.08,30.83,68.86,20.1
1254,byron bay,90,AU,1570731800,93,-28.65,153.62,59.0,5.82
1255,foam lake,97,CA,1570731800,39,51.65,-103.53,33.22,9.92
1256,buchanan,75,LR,1570731801,78,5.88,-10.05,82.4,13.87
1257,aksay,47,KZ,1570731801,65,51.17,53.01,45.82,6.26
1258,jardim,18,BR,1570731801,29,-21.48,-56.15,94.96,7.42
1259,orikum,85,AL,1570731802,80,40.33,19.47,71.02,8.14
1260,kanigoro,62,ID,1570731802,95,-8.13,112.22,72.1,5.11
1261,puerto colombia,40,CO,1570731803,70,10.99,-74.96,87.8,9.17
1262,baracoa,0,CU,1570731803,78,20.35,-74.5,83.08,9.61
1263,nadym,100,RU,1570731803,91,65.53,72.51,45.28,12.72
1264,tamandare,98,BR,1570731804,35,-8.28,-70.75,95.32,2.68
1265,grandola,0,PT,1570731804,28,38.18,-8.57,86.0,11.41
1266,kuldiga,90,LV,1570731805,81,56.97,21.96,53.6,6.93
1267,basoko,72,CD,1570731805,93,1.23,23.61,72.28,2.39
1268,neon petritsion,91,GR,1570731806,84,41.28,23.3,69.01,2.95
1269,george,56,MW,1570731806,47,-15.35,34.83,82.18,8.43
1270,srandakan,85,ID,1570731806,90,-7.94,110.25,73.9,5.04
1271,karabuk,0,TR,1570731807,92,41.2,32.63,53.38,3.28
1272,patur,25,IN,1570731807,76,20.46,76.94,75.34,1.13
1273,thunder bay,90,CA,1570731808,87,48.41,-89.26,57.99,9.17
1274,eten,90,PE,1570731808,29,-6.91,-79.86,66.2,8.05
1275,west bay,5,CA,1570731809,32,49.34,-123.21,50.0,4.7
1276,vera cruz,20,BR,1570731809,65,-12.96,-38.61,82.4,13.87
1277,kargasok,100,RU,1570731809,67,59.06,80.87,33.58,13.96
1278,harindanga,40,IN,1570731810,94,22.04,88.32,77.0,5.19
1279,puerto carreno,40,CO,1570731810,70,6.19,-67.49,86.0,4.02
1280,dawlatabad,74,AF,1570731811,25,36.41,64.91,59.86,1.5
1281,kakamigahara,75,JP,1570731811,73,35.4,136.85,71.6,9.17
1282,erzurum,0,TR,1570731812,33,39.91,41.27,59.0,8.05
1283,candolim,40,IN,1570731812,83,15.52,73.76,78.8,4.7
1284,chino valley,1,US,1570731813,8,34.76,-112.45,73.0,16.11
1285,lahat,67,ID,1570731813,76,-3.78,103.55,68.32,3.28
1286,bam,0,IR,1570731813,11,29.11,58.36,77.86,12.67
1287,wamba,100,CD,1570731814,99,2.14,27.99,67.78,1.03
1288,uvat,100,RU,1570731814,92,59.14,68.9,43.66,5.71
1289,knysna,0,ZA,1570731814,82,-34.04,23.05,55.4,6.93
1290,avenal,20,US,1570731815,17,36.0,-120.13,66.2,14.99
1291,wewak,44,PG,1570731815,84,-3.55,143.63,75.52,3.13
1292,namie,80,JP,1570731815,67,37.52,140.86,63.0,6.67
1293,morgan city,90,US,1570731816,74,29.7,-91.21,88.0,9.17
1294,megion,100,RU,1570731816,68,61.04,76.11,42.4,15.98
1295,lundazi,77,ZM,1570731817,54,-12.29,33.17,74.8,11.49
1296,sault sainte marie,75,CA,1570731817,67,46.49,-84.36,62.6,10.29
1297,xinye,63,CN,1570731818,79,32.53,112.36,61.66,4.14
1298,ulverstone,100,AU,1570731818,92,-41.16,146.17,48.0,5.99
1299,kysyl-syr,85,RU,1570731819,94,63.9,122.77,14.5,6.62
1300,koshurnikovo,0,RU,1570731820,69,54.3,93.39,24.4,3.87
1301,jawa,76,ID,1570731820,75,5.32,95.93,80.74,4.31
1302,kieta,3,PG,1570731820,79,-6.22,155.63,79.3,5.53
1303,pontes e lacerda,11,BR,1570731821,26,-15.23,-59.33,98.2,6.1
1304,khani,0,GE,1570731821,56,41.96,42.96,69.8,14.99
1305,odzaci,75,RS,1570731822,93,45.51,19.26,53.6,8.05
1306,verkhniy avzyan,13,RU,1570731822,94,53.53,57.54,30.7,1.79
1307,norfolk,75,US,1570731823,68,36.85,-76.29,72.0,12.75
1308,puri,41,ID,1570731824,88,-7.54,112.45,71.56,3.29
1309,dunkirk,73,FR,1570731824,76,51.03,2.38,57.99,10.29
1310,port hueneme,1,US,1570731825,64,34.15,-119.2,75.0,4.7
1311,magdagachi,48,RU,1570731825,57,53.45,125.8,23.68,9.06
1312,wasilla,90,US,1570731826,100,61.58,-149.44,42.01,3.36
1313,metro,82,ID,1570731826,90,-5.11,105.31,74.08,6.69
1314,mugan,98,CN,1570731826,62,35.94,101.38,41.86,6.09
1315,lokoja,56,NG,1570731827,84,7.8,6.74,78.04,2.15
1316,maniitsoq,20,GL,1570731827,57,65.42,-52.9,36.1,4.56
1317,acajutla,62,SV,1570731827,79,13.59,-89.83,81.64,3.7
1318,yanam,100,IN,1570731828,89,16.73,82.22,77.32,1.99
1319,bindura,81,ZW,1570731828,24,-17.3,31.33,82.36,6.06
1320,waipawa,100,NZ,1570731829,95,-39.94,176.59,53.01,3.01
1321,nanton,0,CA,1570731829,60,50.35,-113.77,34.0,1.99
1322,pasighat,90,IN,1570731830,94,28.06,95.33,70.12,3.53
1323,myitkyina,96,MM,1570731830,99,25.38,97.4,69.04,2.33
1324,buta,95,CD,1570731830,95,2.79,24.73,72.1,1.66
1325,vila,98,IT,1570731831,82,45.18,8.4,63.0,4.7
1326,manado,40,ID,1570731831,94,1.49,124.85,75.2,2.24
1327,baoro,71,CF,1570731832,94,5.69,15.95,70.3,3.96
1328,murovane,44,UA,1570731832,87,50.41,24.11,48.2,4.47
1329,dawson creek,1,CA,1570731832,59,55.76,-120.23,35.6,2.24
1330,gold coast,40,AU,1570731833,77,-28.0,153.41,59.0,5.82
1331,fuxin,0,CN,1570731833,23,42.02,121.65,45.1,8.23
1332,seydisehir,0,TR,1570731833,39,37.42,31.85,58.78,3.34
1333,mattru,56,SL,1570731834,81,7.62,-11.83,80.02,6.49
1334,kombissiri,75,BF,1570731834,88,12.07,-1.34,78.8,6.17
1335,lobito,75,AO,1570731835,100,-12.35,13.55,73.4,6.93
1336,topolobampo,40,MX,1570731835,59,25.6,-109.05,93.0,13.87
1337,akdepe,0,TM,1570731835,53,42.05,59.39,51.8,4.7
1338,marienburg,75,DE,1570731836,87,52.12,9.98,54.0,5.82
1339,san,13,ML,1570731836,22,13.3,-4.9,95.32,6.81
1340,nizwa,62,OM,1570731837,41,22.93,57.53,81.46,2.47
1341,cervo,75,BR,1570731837,73,-22.19,-46.24,69.8,4.52
1342,salina cruz,44,MX,1570731837,72,16.18,-95.2,84.88,11.41
1343,beremend,75,HU,1570731838,93,45.78,18.43,53.6,8.05
1344,le mars,75,US,1570731838,93,42.79,-96.17,48.99,12.75
1345,zeya,0,RU,1570731839,61,53.74,127.27,23.68,9.69
1346,lydenburg,83,ZA,1570731839,78,-25.1,30.46,62.01,8.66
1347,rincon de la victoria,20,BO,1570731839,33,-21.52,-64.81,86.0,11.41
1348,marsh harbour,78,BS,1570731840,73,26.54,-77.06,81.64,10.65
1349,lixourion,20,GR,1570731840,88,38.2,20.43,71.6,11.98
1350,kaniv,74,UA,1570731840,66,49.76,31.46,56.98,7.72
1351,amot,75,NO,1570731841,93,59.57,7.99,46.4,5.82
1352,road town,40,VG,1570731841,74,18.42,-64.62,89.6,3.36
1353,namtsy,98,RU,1570731842,92,62.72,129.66,19.0,6.21
1354,panshi,0,CN,1570731842,63,42.94,126.05,41.86,8.82
1355,teguldet,0,RU,1570731843,64,57.31,88.17,27.64,7.11
1356,punta de bombon,18,PE,1570731843,70,-17.17,-71.79,61.12,6.99
1357,karatau,99,KZ,1570731844,56,43.18,70.46,54.0,8.46
1358,alekseyevskoye,0,RU,1570731844,60,45.2,43.58,54.1,14.13
1359,waingapu,11,ID,1570731844,84,-9.65,120.26,78.58,10.15
1360,agadez,1,NE,1570731845,69,16.97,7.99,84.2,1.55
1361,inhambane,75,MZ,1570731845,78,-23.87,35.38,75.2,12.75
1362,cairns,84,AU,1570731846,88,-16.92,145.77,69.8,1.12
1363,abay,100,KZ,1570731846,40,49.63,72.87,57.34,4.07
1364,bay roberts,40,CA,1570731846,62,47.58,-53.28,57.0,8.05
1365,usinsk,100,RU,1570731847,83,66.0,57.56,32.32,11.72
1366,luanda,75,AO,1570731847,78,-8.83,13.24,77.0,10.29
1367,north platte,90,US,1570731847,69,41.12,-100.77,33.8,24.16
1368,podyuga,98,RU,1570731848,95,61.09,40.86,35.2,6.13
1369,prince george,1,CA,1570731848,36,53.92,-122.75,36.0,6.93
1370,grand forks,90,US,1570731849,86,47.91,-97.06,37.4,20.8
1371,kirkwall,40,GB,1570731849,87,58.98,-2.96,51.8,9.31
1372,gamba,0,CN,1570731849,61,28.28,88.52,31.6,3.34
1373,jurm,17,AF,1570731850,55,36.86,70.83,40.78,0.84
1374,scarborough,100,GB,1570731851,87,54.28,-0.41,55.99,12.75
1375,dulovo,58,SK,1570731851,83,48.37,20.19,49.6,9.99
1376,bila,86,UA,1570731852,81,48.25,28.22,52.0,5.37
1377,fuyang,94,CN,1570731852,71,32.89,115.81,66.34,3.64
1378,preston,75,GB,1570731852,87,53.76,-2.71,59.0,6.93
1379,seydi,20,NE,1570731853,94,13.34,7.75,77.0,4.7
1380,sarankhola,26,BD,1570731853,89,22.31,89.79,76.6,1.63
1381,pedernales,75,EC,1570731854,65,0.07,-80.05,80.74,9.03
1382,tete,40,MZ,1570731854,26,-16.16,33.59,96.8,10.29
1383,bijie,100,CN,1570731854,92,27.3,105.3,52.66,4.94
1384,songjianghe,100,CN,1570731855,86,42.18,127.48,47.8,1.54
1385,nikolayevka,2,RU,1570731855,59,46.73,38.57,56.98,5.0
1386,puchezh,100,RU,1570731856,93,56.98,43.17,44.56,14.72
1387,kalispell,1,US,1570731856,38,48.2,-114.32,35.01,4.7
1388,lakatoro,97,VU,1570731857,77,-16.11,167.42,77.86,9.33
1389,van,20,TR,1570731857,58,38.51,43.37,53.6,4.7
1390,taraz,100,KZ,1570731857,56,42.89,71.39,54.0,7.91
1391,kushima,87,JP,1570731858,93,31.5,131.29,62.01,4.0
1392,dicabisagan,53,PH,1570731858,84,17.08,122.42,75.88,9.18
1393,mpanda,99,BI,1570731858,85,-3.17,29.4,62.92,3.12
1394,tiznit,100,MA,1570731859,32,29.7,-9.73,77.32,1.74
1395,amudat,92,UG,1570731859,56,1.95,34.95,74.08,14.42
1396,sterling,1,US,1570731860,56,39.0,-77.4,75.2,4.7
1397,zapolyarnyy,75,RU,1570731860,93,69.43,30.82,35.6,4.7
1398,havoysund,75,NO,1570731860,86,71.0,24.66,37.4,9.17
1399,gamovo,89,RU,1570731861,89,57.87,56.11,38.44,5.74
1400,santiago,30,PH,1570731861,97,16.69,121.54,67.96,2.08
1401,mahibadhoo,99,MV,1570731862,71,3.78,72.97,83.08,8.65
1402,machilipatnam,40,IN,1570731863,88,16.18,81.14,78.8,4.0
1403,santa margarita,83,AR,1570731863,25,-38.69,-62.28,79.3,14.4
1404,ashtabula,1,US,1570731863,45,41.87,-80.79,71.01,8.05
1405,nioro,26,GM,1570731864,62,13.79,-15.05,87.76,7.11
1406,ejura,40,GH,1570731864,85,7.38,-1.37,77.68,2.39
1407,ankazoabo,94,MG,1570731864,44,-22.29,44.51,76.78,7.1
1408,phalaborwa,94,ZA,1570731865,63,-23.95,31.14,62.6,21.92
1409,sestri levante,80,IT,1570731866,77,44.27,9.41,66.2,4.7
1410,latung,48,ID,1570731866,56,-8.45,120.42,67.06,3.91
1411,huarmey,44,PE,1570731866,47,-10.07,-78.15,73.72,10.43
1412,pahrump,1,US,1570731867,8,36.21,-115.98,62.01,9.17
1413,tamiahua,0,MX,1570731867,78,21.28,-97.45,82.0,4.52
1414,boddam,99,GB,1570731867,87,57.47,-1.78,50.0,10.29
1415,druzhba,100,UA,1570731868,85,52.05,33.94,48.52,12.42
1416,saint stephen,90,US,1570731868,100,45.7,-94.27,57.0,4.7
1417,udachnyy,79,RU,1570731869,95,66.42,112.4,3.7,9.67
1418,hyeres,0,FR,1570731869,32,43.12,6.14,71.01,9.17
1419,kharp,100,RU,1570731869,96,66.82,65.8,29.62,6.25
1420,lazurne,68,UA,1570731870,67,46.77,34.99,59.14,7.51
1421,merrill,1,US,1570731870,30,42.03,-121.6,42.01,5.82
1422,bloemhof,0,ZA,1570731871,25,-27.65,25.61,64.9,7.14
1423,rapid city,20,US,1570731871,100,44.08,-103.23,28.99,29.97
1424,iwaki,95,JP,1570731871,98,37.05,140.89,70.0,1.01
1425,matay,96,EG,1570731872,34,28.42,30.79,81.1,17.25
1426,yerbabuena,75,MX,1570731872,47,20.97,-101.28,78.01,4.7
1427,monteagudo,0,BO,1570731873,27,-19.8,-63.96,91.4,6.93
1428,luwero,67,UG,1570731874,95,0.85,32.47,66.88,2.54
1429,santo andre,69,BR,1570731874,51,-0.91,-46.86,88.84,9.32
1430,oskaloosa,90,US,1570731874,78,39.22,-95.31,73.99,11.41
1431,barraute,5,CA,1570731875,47,48.43,-77.63,59.0,12.75
1432,suriapet,100,IN,1570731876,92,17.15,79.62,75.16,3.99
1433,laramie,40,US,1570731876,72,41.31,-105.59,21.99,10.29
1434,bayan,100,CN,1570731877,66,36.1,102.26,39.88,3.82
1435,kuopio,45,FI,1570731878,93,62.89,27.68,35.6,4.7
1436,aitape,100,PG,1570731879,79,-3.15,142.36,80.38,6.81
1437,amga,100,RU,1570731879,86,60.89,131.98,19.9,8.65
1438,baoding,100,CN,1570731879,82,38.86,115.49,59.14,1.75
1439,cascais,0,PT,1570731880,44,38.7,-9.42,78.8,8.05
1440,porangatu,69,BR,1570731880,34,-13.44,-49.14,93.7,3.75
1441,sabha,0,LY,1570731881,30,27.03,14.43,78.22,4.04
1442,senno,90,RU,1570731881,87,57.76,27.95,49.6,8.15
1443,giresun,0,TR,1570731882,93,40.91,38.39,62.6,1.12
1444,valladolid,0,ES,1570731882,39,41.65,-4.73,70.0,2.24
1445,muros,0,ES,1570731882,87,42.77,-9.06,68.0,5.82
1446,skibbereen,75,IE,1570731883,87,51.55,-9.27,55.4,20.8
1447,arkhangelsk,100,RU,1570731883,97,64.54,40.54,33.94,7.02
1448,mayumba,100,GA,1570731884,90,-3.44,10.65,76.06,6.91
1449,lastoursville,84,GA,1570731884,96,-0.81,12.73,72.28,2.1
1450,gouyave,75,GD,1570731884,79,12.16,-61.73,84.2,8.05
1451,celestun,23,MX,1570731885,73,20.87,-90.4,83.62,7.65
1452,sao sebastiao,53,BR,1570731885,38,-3.15,-58.36,95.86,5.51
1453,saint peters,20,US,1570731886,61,35.62,-89.39,86.0,8.05
1454,gaoual,47,GN,1570731886,84,11.75,-13.2,78.76,2.98
1455,atagay,0,RU,1570731887,60,55.1,99.39,22.24,2.29
1456,bangassou,50,CF,1570731887,95,4.74,22.82,70.84,1.45
1457,luena,75,AO,1570731887,83,-11.78,19.91,65.62,5.52
1458,pocone,67,BR,1570731888,27,-16.26,-56.62,99.1,5.6
1459,issia,21,CI,1570731888,90,6.49,-6.58,77.32,1.63
1460,xiamen,26,CN,1570731889,88,24.46,118.07,75.2,4.47
1461,bocas del toro,100,PA,1570731889,91,9.33,-82.25,68.0,7.92
1462,north branch,90,US,1570731889,82,45.51,-92.98,59.0,12.62
1463,ilam,0,IR,1570731890,25,33.64,46.42,73.4,4.7
1464,koslan,100,RU,1570731890,96,63.46,48.9,34.84,7.23
1465,wilmington island,20,US,1570731891,51,32.0,-80.97,81.0,6.93
1466,manono,100,CD,1570731891,65,-7.3,27.4,76.6,1.28
1467,morant bay,20,JM,1570731892,59,17.88,-76.41,89.6,19.46
1468,kibala,20,TD,1570731892,83,9.11,18.35,82.4,1.81
1469,novyy yegorlyk,0,RU,1570731892,67,46.39,41.87,56.8,10.44
1470,athabasca,80,CA,1570731893,40,54.72,-113.29,35.2,9.58
1471,zelenoborskiy,91,RU,1570731893,86,66.84,32.36,32.0,11.37
1472,hirara,4,JP,1570731893,76,24.8,125.28,76.24,17.74
1473,priargunsk,89,RU,1570731894,71,50.37,119.09,22.24,4.54
1474,mulege,16,MX,1570731894,30,26.88,-111.98,88.12,7.99
1475,rio cuarto,75,AR,1570731894,23,-33.13,-64.35,93.2,20.8
1476,diamantina,19,BR,1570731895,36,-18.24,-43.6,85.78,8.78
1477,baherden,72,TM,1570731895,44,38.44,57.43,69.76,4.12
1478,visby,47,SE,1570731896,87,57.64,18.3,53.01,11.41
1479,marzuq,30,YE,1570731896,54,14.4,46.47,76.42,5.93
1480,jalu,100,LY,1570731897,24,29.03,21.55,86.14,10.44
1481,santa branca,20,BR,1570731897,54,-23.4,-45.88,82.4,8.05
1482,beyneu,0,KZ,1570731898,32,45.32,55.19,51.94,4.83
1483,san nicolas,20,PH,1570731898,83,13.93,120.95,79.0,1.72
1484,potot,96,PH,1570731899,91,11.34,124.55,74.62,2.54
1485,zambezi,94,ZM,1570731899,57,-13.55,23.12,73.9,6.07
1486,kargala,21,RU,1570731899,50,56.62,83.96,35.01,3.0
1487,champerico,40,MX,1570731900,58,16.38,-93.6,86.0,3.36
1488,savannah bight,81,HN,1570731900,73,16.45,-85.85,85.06,12.5
1489,poltavka,100,RU,1570731900,59,54.36,71.76,55.0,3.87
1490,almaznyy,0,RU,1570731901,68,48.03,40.04,52.84,8.19
1491,kroya,92,ID,1570731901,84,-6.5,108.06,74.98,1.45
1492,ulagan,0,RU,1570731902,63,50.63,87.96,33.76,1.67
1493,trairi,43,BR,1570731902,35,-3.28,-39.27,91.9,13.75
1494,coolum beach,29,AU,1570731902,95,-26.53,153.09,60.01,2.82
1495,khuzhir,3,RU,1570731903,51,53.19,107.35,28.18,10.13
1496,tecpatan,40,MX,1570731903,58,17.13,-93.3,86.0,3.36
1497,putai,75,FR,1570731904,93,46.66,1.99,61.0,8.05
1498,white rock,20,CA,1570731904,52,49.02,-122.8,50.0,5.82
1499,shache,0,CN,1570731905,21,38.42,77.24,62.56,7.73
1500,bom jardim,40,BR,1570731905,48,-7.8,-35.59,86.0,19.46
1501,ierapetra,20,GR,1570731905,83,35.01,25.74,73.0,2.24
1502,shambu,93,ET,1570731906,93,9.57,37.1,57.7,3.23
1503,miragoane,8,HT,1570731906,64,18.44,-73.09,82.18,4.63
1504,votkinsk,99,RU,1570731907,95,57.05,53.99,39.99,1.01
1505,piacabucu,66,BR,1570731907,74,-10.41,-36.43,78.04,12.18
1506,bolgatanga,89,GH,1570731908,73,10.79,-0.85,80.74,2.41
1507,goya,0,AR,1570731908,34,-29.14,-59.27,92.98,11.92
1508,tanout,100,NE,1570731908,35,14.97,8.88,88.84,5.29
1509,bignona,75,SN,1570731909,63,12.8,-16.23,93.2,2.24
1510,petrovsk-zabaykalskiy,0,RU,1570731909,78,51.27,108.84,14.14,4.26
1511,tezu,95,IN,1570731909,97,27.93,96.16,67.6,2.95
1512,betsiamites,1,CA,1570731910,58,48.94,-68.65,55.4,4.7
1513,ashqelon,61,IL,1570731910,69,31.67,34.57,78.8,4.7
1514,corinto,75,CO,1570731911,54,3.17,-76.26,84.2,4.7
1515,neiafu,75,TO,1570731911,94,-18.65,-173.98,73.4,17.72
1516,mercedes,20,UY,1570731912,46,-33.25,-58.03,86.0,8.01
1517,san rafael del sur,40,NI,1570731912,59,11.85,-86.44,89.6,6.93
1518,bullhead city,5,US,1570731912,9,35.15,-114.57,68.0,29.97
1519,ende,36,ID,1570731913,81,-8.84,121.65,78.22,2.76
1520,fort abbas,0,PK,1570731913,21,29.19,72.85,84.7,4.9
1521,harnosand,75,SE,1570731914,100,62.63,17.94,46.99,2.24
1522,san felipe,100,CL,1570731914,17,-32.75,-70.73,66.16,8.71
1523,vila do maio,40,CV,1570731915,78,15.13,-23.22,82.4,16.11
1524,akita,93,JP,1570731915,84,39.72,140.1,60.76,16.65
1525,smolenka,100,PL,1570731915,92,54.15,22.76,48.34,9.09
1526,anuradhapura,100,LK,1570731916,89,8.34,80.41,77.14,2.64
1527,vanse,61,NO,1570731916,79,58.12,6.7,53.01,18.01
1528,tinskoy,0,RU,1570731917,60,56.15,96.92,23.68,5.31
1529,grafton,83,AU,1570731917,81,-29.69,152.93,52.0,4.7
1530,mitu,0,IR,1570731917,62,36.2,46.09,50.86,2.12
1531,alghero,0,IT,1570731918,72,40.56,8.32,64.4,1.12
1532,shilong,20,CN,1570731918,83,23.11,113.84,84.0,8.95
1533,cordoba,10,AR,1570731918,15,-27.78,-67.24,95.32,8.85
1534,bedesa,100,ET,1570731919,85,8.9,40.78,60.76,0.54
1535,pozhva,87,RU,1570731920,93,59.09,56.08,37.36,7.31
1536,karasjok,75,NO,1570731921,93,69.47,25.52,35.6,9.17
1537,granada,40,NI,1570731921,59,11.93,-85.96,89.6,6.93
1538,boyolangu,62,ID,1570731921,95,-8.09,111.9,72.1,5.11
1539,kontagora,46,NG,1570731922,87,10.4,5.47,76.6,4.43
1540,yerofey pavlovich,100,RU,1570731922,59,53.97,121.97,21.52,4.59
1541,trofors,40,NO,1570731922,90,65.54,13.39,39.2,4.7
1542,darnah,100,LY,1570731923,80,32.77,22.64,76.78,9.48
1543,madang,86,CN,1570731923,68,35.32,102.79,43.12,2.04
1544,bogashevo,35,RU,1570731924,50,56.37,85.14,35.01,3.0
1545,basco,90,US,1570731924,93,40.33,-91.2,64.4,10.29
1546,partizanskoye,17,RU,1570731925,43,53.35,78.35,45.82,9.66
1547,hwange,78,ZW,1570731925,27,-18.35,26.5,84.16,5.19
1548,witu,20,KE,1570731925,83,-2.39,40.44,80.6,10.31
1549,shima,75,JP,1570731926,73,34.34,136.82,71.6,9.17
1550,kerema,99,PG,1570731926,95,-7.96,145.78,72.82,1.42
1551,goba,46,ET,1570731926,84,7.01,39.97,47.62,4.53
1552,sylvania,1,US,1570731927,49,41.72,-83.71,75.0,8.05
1553,kaniama,87,CD,1570731927,90,-7.57,24.18,68.14,3.19
1554,miraflores,0,PE,1570731927,6,-16.39,-71.52,71.6,11.41
1555,yurla,98,RU,1570731928,93,59.33,54.32,36.1,6.37
1556,kangaba,67,ML,1570731928,66,11.94,-8.41,82.0,5.47
1557,inirida,58,CO,1570731928,49,3.87,-67.92,91.9,2.59
1558,hargeysa,75,SO,1570731929,74,9.56,44.06,70.48,9.61
1559,kailua,75,US,1570731929,83,21.39,-157.74,84.2,22.31
1560,umtata,75,ZA,1570731929,76,-31.59,28.78,51.8,8.05
1561,wuhan,86,CN,1570731930,82,30.6,114.3,66.2,4.47
1562,esik,20,KZ,1570731930,66,43.36,77.47,50.0,2.24
1563,baiyin,100,CN,1570731930,100,36.55,104.13,39.2,4.47
1564,teahupoo,75,PF,1570731931,65,-17.83,-149.27,78.8,3.36
1565,hudson bay,61,CA,1570731931,35,52.86,-102.4,35.92,5.55
1566,madison,75,US,1570731931,64,43.07,-89.38,72.0,11.41
1567,show low,1,US,1570731932,17,34.25,-110.03,62.01,14.99
1568,stubbekobing,38,DK,1570731932,100,54.89,12.04,53.01,9.17
1569,havre,0,US,1570731932,79,48.55,-109.68,28.0,9.17
1570,delijan,0,IR,1570731933,25,33.99,50.69,64.72,4.02
1571,arlit,90,NE,1570731933,44,18.74,7.39,84.52,13.22
1572,chipurupalle,94,IN,1570731934,89,18.32,83.57,75.52,1.92
1573,nortelandia,65,BR,1570731934,37,-14.45,-56.8,91.9,4.81
1574,joniskis,90,LT,1570731935,100,56.24,23.62,48.2,8.05
1575,sawtell,86,AU,1570731935,93,-30.38,153.1,51.8,1.12
1576,santa isabel,1,MX,1570731935,6,32.63,-115.58,80.6,14.99
1577,vostochnyy,90,RU,1570731936,100,55.82,37.87,50.0,8.95
1578,mariestad,70,SE,1570731936,93,58.71,13.82,48.2,4.7
1579,miandrivazo,19,MG,1570731936,50,-19.53,45.46,82.9,4.43
1580,cotacachi,75,EC,1570731937,31,0.3,-78.27,73.4,5.82
1581,bay saint louis,40,US,1570731937,66,30.31,-89.33,87.01,21.92
1582,alto longa,37,BR,1570731938,18,-5.25,-42.21,103.06,8.74
1583,nuoro,2,IT,1570731938,52,40.32,9.33,71.6,9.17
1584,krasnyy yar,70,RU,1570731938,44,50.7,44.73,51.76,12.62
1585,kundiawa,93,PG,1570731939,98,-6.02,144.97,52.66,0.22
1586,do gonbadan,57,IR,1570731939,32,30.36,50.8,82.4,2.92
1587,wahiawa,40,US,1570731939,94,21.5,-158.02,84.2,5.05
1588,samana,75,EC,1570731940,88,0.12,-76.97,75.2,8.05
1589,hun,58,BE,1570731940,76,50.34,4.87,55.99,12.75
1590,ardrishaig,40,GB,1570731941,87,56.02,-5.45,55.4,13.87
1591,nangka,75,MY,1570731941,88,6.78,116.79,77.0,6.93
1592,yavatmal,16,IN,1570731942,75,20.39,78.13,74.62,2.52
1593,lagunas,73,PE,1570731942,57,-5.23,-75.68,88.66,3.19
1594,pochutla,75,MX,1570731942,62,15.74,-96.47,90.0,7.45
1595,bara,6,NG,1570731943,67,10.41,10.6,79.66,1.95
1596,sampang,84,ID,1570731944,85,-7.54,109.46,74.98,1.63
1597,rebrisoara,99,RO,1570731944,62,47.28,24.45,50.0,1.01
1598,tumen,77,CN,1570731944,90,42.97,129.84,50.32,4.56
1599,chengde,19,CN,1570731945,59,40.97,117.93,46.9,1.73
1600,takayama,6,JP,1570731945,86,36.14,137.25,63.0,4.19
1601,plainview,1,US,1570731946,50,34.18,-101.71,64.4,16.11
1602,poshekhonye,100,RU,1570731946,92,58.5,39.12,42.94,8.58
1603,tefe,20,BR,1570731947,78,-3.35,-64.71,82.4,5.82
1604,quanzhou,0,CN,1570731947,88,24.9,118.59,75.2,4.47
1605,agucadoura,0,PT,1570731948,60,41.43,-8.78,70.0,8.05
1606,samaipata,0,BO,1570731948,35,-18.18,-63.88,80.56,6.73
1607,przhevalskoye,100,RU,1570731948,97,55.51,31.85,45.1,7.19
1608,honiara,20,SB,1570731949,94,-9.43,159.96,75.2,2.55
1609,russell,90,US,1570731949,86,38.9,-98.86,42.8,24.16
1610,zlatoust,86,RU,1570731949,86,55.17,59.68,32.68,5.54
1611,ridgecrest,1,US,1570731950,7,35.62,-117.67,68.0,17.0
1612,iquitos,40,PE,1570731950,319,-3.75,-73.25,42.8,5.82
1613,mushie,97,CD,1570731951,77,-3.02,16.92,77.5,4.91
1614,chinsali,57,ZM,1570731951,41,-10.55,32.07,77.14,7.69
1615,ocho rios,20,JM,1570731952,59,18.41,-77.1,89.6,19.46
1616,tommot,99,RU,1570731952,93,58.97,126.27,14.32,7.82
1617,las palmas,90,CO,1570731954,72,9.27,-75.33,84.34,4.14
1618,imbituba,0,BR,1570731954,54,-28.24,-48.67,80.6,11.41
1619,moindou,6,NC,1570731955,87,-21.69,165.68,60.8,3.36
1620,bolotnoye,6,RU,1570731955,64,55.67,84.39,31.96,10.18
1621,howard springs,95,AU,1570731956,78,-12.5,131.05,79.0,4.7
1622,ko samui,76,TH,1570731956,68,9.54,99.94,82.36,1.52
1623,laon,40,FR,1570731956,71,49.56,3.62,55.4,4.7
1624,shwebo,94,MM,1570731957,91,22.57,95.7,74.98,3.38
1625,kalininsk,100,RU,1570731957,56,51.5,44.48,51.76,12.8
1626,ushtobe,6,KZ,1570731957,35,45.25,77.98,59.86,4.03
1627,zhangye,99,CN,1570731958,38,38.94,100.46,56.08,3.81
1628,alem paraiba,100,BR,1570731959,87,-21.89,-42.7,69.4,2.59
1629,dauriya,0,RU,1570731960,61,49.93,116.85,20.08,8.89
1630,esna,90,RO,1570731960,55,45.2,27.57,66.2,9.17
1631,vieques,40,PR,1570731960,62,18.43,-65.83,89.01,9.17
1632,venado tuerto,83,AR,1570731961,34,-33.75,-61.97,91.0,14.0
1633,weinan,100,CN,1570731961,100,34.5,109.46,60.01,2.24
1634,buin,90,CL,1570731962,18,-33.73,-70.74,80.6,4.29
1635,veraval,64,FR,1570731962,76,49.65,0.71,55.99,8.05
1636,ballina,75,IE,1570731962,100,54.11,-9.15,57.0,13.87
1637,kyabram,79,AU,1570731963,83,-36.31,145.05,48.0,7.82
1638,queenstown,80,ZA,1570731964,81,-31.89,26.88,49.24,9.99
1639,monte santo,48,BR,1570731964,39,-10.44,-39.33,87.94,13.5
1640,akhmim,28,EG,1570731965,15,26.56,31.74,93.2,9.17
1641,bolzano,66,IT,1570731965,82,45.97,13.39,60.8,9.17
1642,duleek,75,IE,1570731966,87,53.66,-6.41,55.99,11.41
1643,raudeberg,75,NO,1570731966,93,61.99,5.14,51.01,18.34
1644,syracuse,1,US,1570731967,59,43.05,-76.15,68.0,4.7
1645,mongo,92,CD,1570731967,82,-5.62,14.6,76.06,3.94
1646,palana,100,RU,1570731968,92,59.08,159.95,33.22,3.28
1647,ribita,100,RO,1570731969,94,46.18,22.77,49.06,2.68
1648,springbok,58,ZA,1570731970,11,-29.67,17.88,61.3,7.99
1649,balkanabat,57,TM,1570731971,48,39.51,54.36,66.88,7.56
1650,laurel,1,US,1570731972,44,39.1,-76.85,75.2,5.37
1651,patrocinio,26,PH,1570731972,95,13.72,123.64,71.38,1.34
1652,port shepstone,99,ZA,1570731973,72,-30.74,30.45,59.86,2.65
1653,akim swedru,76,GH,1570731973,96,5.89,-1.02,75.52,3.43
1654,tadpatri,100,IN,1570731974,73,14.92,78.02,81.1,7.03
1655,ust-ordynskiy,0,RU,1570731974,68,52.8,104.75,26.6,2.24
1656,islamkot,0,PK,1570731975,36,24.7,70.18,86.68,6.11
1657,meadow lake,20,CA,1570731975,37,54.13,-108.44,37.4,19.46
1658,sosnovo-ozerskoye,0,RU,1570731976,79,52.53,111.54,13.78,6.82
1659,semey,9,KZ,1570731976,42,50.41,80.25,52.66,8.68
1660,zhanaozen,0,KZ,1570731976,27,43.35,52.85,53.2,10.69
1661,thinadhoo,99,MV,1570731977,79,0.53,72.93,82.36,13.85
1662,tarnobrzeg,22,PL,1570731977,71,50.57,21.68,55.0,3.36
1663,vanderhoof,45,CA,1570731978,43,54.02,-124.02,37.18,0.49
1664,lieksa,74,FI,1570731978,91,63.32,30.02,31.96,2.39
1665,bollnas,79,SE,1570731978,97,61.35,16.39,45.0,4.43
1666,malinovskiy,95,RU,1570731979,88,54.15,34.53,47.62,13.1
1667,pandrup,16,DK,1570731979,93,57.21,9.68,51.01,1.99
1668,batsfjord,75,NO,1570731979,86,70.63,29.72,39.2,10.29
1669,nokha,0,IN,1570731980,23,27.56,73.47,83.8,5.75
1670,tigzirt,60,DZ,1570731981,68,36.57,4.2,65.26,3.62
1671,calvinia,0,ZA,1570731981,17,-31.47,19.78,59.5,5.22
1672,mangai,67,CD,1570731982,91,-4.07,19.59,74.08,1.89
1673,meiganga,99,CM,1570731982,95,6.52,14.29,69.04,4.02
1674,tubarao,0,BR,1570731983,30,-28.47,-49.01,89.2,5.36
1675,bangkalan,35,ID,1570731983,82,-7.05,112.74,74.8,3.24
1676,jambi,93,ID,1570731983,89,-1.6,103.62,74.44,1.58
1677,macapa,20,BR,1570731984,49,0.05,-51.07,93.2,12.75
1678,gwadar,0,PK,1570731984,79,25.12,62.33,82.18,7.45
1679,carbonia,0,IT,1570731985,52,39.17,8.53,70.0,10.29
1680,palmas,40,BR,1570731985,55,-10.18,-48.33,86.0,5.82
1681,phalombe,99,MW,1570731986,51,-15.81,35.65,78.94,6.93
1682,namalenga,48,TZ,1570731986,61,-10.95,39.1,79.12,4.8
1683,digras,27,IN,1570731987,73,20.1,77.72,73.9,2.15
1684,weihai,94,CN,1570731987,77,37.5,122.11,61.3,3.89
1685,hakui,40,JP,1570731987,93,36.89,136.78,63.0,3.36
1686,llandrindod wells,100,GB,1570731988,88,52.24,-3.38,57.99,3.0
1687,tupancireta,0,BR,1570731988,56,-29.08,-53.84,81.82,7.33
1688,dauphin,40,CA,1570731989,69,51.15,-100.04,35.6,17.22
1689,saskatoon,20,CA,1570731989,43,52.13,-106.66,35.6,9.17
1690,imatra,90,FI,1570731990,100,61.17,28.77,41.0,3.36
1691,koumac,4,NC,1570731990,88,-20.56,164.28,62.74,1.59
1692,wilhelmshaven,40,DE,1570731990,76,53.53,8.11,53.6,10.29
1693,lazarev,96,RU,1570731991,60,52.23,141.51,47.08,18.67
1694,kpandu,90,GH,1570731991,91,7.0,0.29,75.16,3.44
1695,cooma,90,AU,1570731992,100,-36.24,149.13,41.0,2.71
1696,odessa,1,US,1570731992,22,31.85,-102.37,88.0,13.87
1697,isiro,100,CD,1570731993,99,2.77,27.62,66.16,3.08
1698,khasan,83,RU,1570731993,79,42.43,130.64,52.48,3.64
1699,moa,21,CU,1570731994,49,20.66,-74.95,90.28,5.13
1700,jiujiang,86,CN,1570731994,73,29.73,115.99,70.84,7.21
1701,hoi an,20,VN,1570731994,94,15.88,108.33,75.2,2.09
1702,krasnoborsk,41,RU,1570731995,95,61.56,45.93,32.32,5.26
1703,doka,40,SD,1570731995,72,13.52,35.76,78.22,6.13
1704,diplo,0,PK,1570731996,46,24.47,69.59,85.96,8.15
1705,okmulgee,75,US,1570731996,74,35.62,-95.96,80.6,19.46
1706,manadhoo,100,MV,1570731997,74,5.77,73.38,82.54,7.73
1707,alyangula,95,AU,1570731997,88,-13.85,136.42,62.6,4.76
1708,yabrud,70,SY,1570731998,31,33.97,36.66,77.0,5.82
1709,techiman,66,GH,1570731998,91,7.58,-1.94,74.98,3.13
1710,skvyra,60,UA,1570731999,68,49.73,29.66,53.56,6.45
1711,ilo,40,PE,1570732000,59,-17.65,-71.34,66.2,10.29
1712,koforidua,96,GH,1570732000,95,6.11,-0.27,74.8,4.7
1713,santa cruz cabralia,40,BR,1570732001,74,-16.28,-39.02,78.8,11.41
1714,effingham,1,US,1570732001,56,39.12,-88.54,77.0,8.05
1715,azul,67,AR,1570732002,53,-36.78,-59.86,80.01,9.78
1716,nokaneng,97,BW,1570732002,64,-19.66,22.19,71.02,15.84
1717,taber,5,CA,1570732003,67,49.79,-112.14,23.0,4.7
1718,eseka,50,CM,1570732003,94,3.65,10.77,71.56,5.25
1719,cam ranh,20,VN,1570732004,94,11.92,109.15,78.8,2.24
1720,tias,40,ES,1570732004,88,28.96,-13.65,73.4,8.05
1721,balakhta,0,RU,1570732005,55,55.38,91.62,28.0,11.32
1722,leshan,95,CN,1570732005,66,29.56,103.76,64.9,2.71
1723,kogon,5,UZ,1570732005,55,39.73,64.54,66.2,9.17
1724,magadi,20,IN,1570732006,83,12.96,77.22,75.2,5.58
1725,kaseda,15,JP,1570732006,93,31.42,130.32,62.01,4.0
1726,atyashevo,100,RU,1570732007,93,54.56,46.07,46.0,13.75
1727,lamu,100,CN,1570732007,66,35.77,102.37,39.88,3.82
1728,antigonish,1,CA,1570732008,62,45.62,-61.99,60.01,5.82
1729,medea,20,DZ,1570732008,73,36.27,2.77,73.4,11.41
1730,krasnoye,0,RU,1570732009,100,44.87,39.46,55.0,5.63
1731,north bend,1,US,1570732009,47,43.41,-124.22,55.99,10.29
1732,jiuquan,100,CN,1570732009,44,39.73,98.49,50.68,5.68
1733,agutaya,74,PH,1570732010,77,11.15,120.94,83.08,13.23
1734,bellavista,40,MX,1570732010,54,21.56,-104.88,84.2,3.94
1735,annau,75,TM,1570732011,46,37.89,58.52,71.6,4.7
1736,peruibe,57,BR,1570732011,85,-24.32,-47.0,70.84,13.32
1737,tombouctou,40,ML,1570732012,20,16.77,-3.01,100.72,11.14
1738,oconomowoc,40,US,1570732012,68,43.11,-88.5,73.0,10.29
1739,kamoke,0,PK,1570732012,88,31.97,74.22,78.8,0.87
1740,cerritos,1,US,1570732013,35,33.86,-118.05,75.99,3.36
1741,muriwai beach,100,NZ,1570732013,93,-36.82,174.45,60.01,8.05
1742,zabol,0,IR,1570732014,23,31.03,61.49,77.0,24.16
1743,tuxpan,75,MX,1570732014,83,19.56,-103.38,77.0,11.41
1744,kantunilkin,75,MX,1570732015,74,21.1,-87.49,86.0,10.29
1745,la cruz,1,MX,1570732015,71,23.92,-106.89,91.99,4.0
1746,concordia,9,AR,1570732016,36,-31.4,-58.02,88.0,15.01
1747,senneterre,20,CA,1570732016,44,48.39,-77.24,60.8,13.87
1748,harsesti,67,RO,1570732016,61,44.53,24.78,63.0,2.71
1749,benjamin constant,75,BR,1570732017,78,-4.38,-70.03,80.6,3.36
1750,altamira,75,BR,1570732017,55,-3.2,-52.21,91.4,6.93
1751,mokhsogollokh,69,RU,1570732017,94,61.4,128.95,15.04,7.02
1752,kyren,95,RU,1570732018,91,51.68,102.13,11.62,2.26
1753,ust-maya,100,RU,1570732018,94,60.42,134.54,23.14,10.44
1754,sao miguel do araguaia,67,BR,1570732018,33,-13.28,-50.16,96.22,2.98
1755,qinhuangdao,72,CN,1570732019,40,39.94,119.59,55.54,12.57
1756,derbent,97,RU,1570732019,83,42.06,48.29,63.82,22.31
1757,kingsland,90,US,1570732020,74,30.8,-81.69,82.99,16.11
1758,porto empedocle,40,IT,1570732021,78,37.29,13.53,71.6,3.36
1759,asmar,0,AF,1570732021,61,35.03,71.36,54.46,2.87
1760,iksha,90,RU,1570732022,100,56.18,37.5,48.2,8.95
1761,plymouth,75,GB,1570732023,93,50.37,-4.14,61.0,20.8
